$GPGGA,211742.80,3929.028000,N,08719.382733,W,2,04,2.5,164.661,M,-34.248,M,6.0,0135*7E
$GPVTG,0.0,T,,M,0.16,N,0.30,K,D*0C
$GPGGA,211742.90,3929.028002,N,08719.382733,W,2,04,2.5,164.676,M,-34.248,M,6.0,0135*7B
$GPVTG,6.8,T,,M,0.29,N,0.54,K,D*0C
$GPGGA,211743.00,3929.027999,N,08719.382738,W,2,04,2.5,164.673,M,-34.248,M,6.0,0135*79
$GPVTG,0.0,T,,M,0.18,N,0.33,K,D*01
$GPGGA,211743.10,3929.027930,N,08719.382759,W,2,04,2.5,164.511,M,-34.248,M,2.0,0135*7F
$GPVTG,56.6,T,,M,0.31,N,0.57,K,D*3D
$GPGGA,211743.20,3929.027926,N,08719.382767,W,2,04,2.5,164.514,M,-34.248,M,2.0,0135*73
$GPVTG,239.3,T,,M,0.26,N,0.48,K,D*0B
$GPGGA,211743.30,3929.027928,N,08719.382760,W,2,04,2.5,164.517,M,-34.248,M,2.0,0135*78
$GPVTG,69.4,T,,M,0.20,N,0.38,K,D*3A
$GPGGA,211743.40,3929.027931,N,08719.382754,W,2,04,2.5,164.524,M,-34.248,M,2.0,0135*70
$GPVTG,53.6,T,,M,0.24,N,0.45,K,D*3F
$GPGGA,211743.50,3929.027930,N,08719.382756,W,2,04,2.5,164.516,M,-34.248,M,2.0,0135*73
$GPVTG,0.0,T,,M,0.18,N,0.33,K,D*01
$GPGGA,211743.60,3929.027928,N,08719.382761,W,2,04,2.5,164.520,M,-34.248,M,2.0,0135*78
$GPVTG,0.0,T,,M,0.16,N,0.30,K,D*0C
$GPGGA,211743.70,3929.027928,N,08719.382758,W,2,04,2.5,164.519,M,-34.248,M,2.0,0135*79
$GPVTG,0.0,T,,M,0.07,N,0.14,K,D*0A
$GPGGA,211743.80,3929.027926,N,08719.382762,W,2,04,2.5,164.521,M,-34.248,M,2.0,0135*7A
$GPVTG,0.0,T,,M,0.13,N,0.24,K,D*0C
$GPGGA,211743.90,3929.027927,N,08719.382759,W,2,04,2.5,164.523,M,-34.248,M,2.0,0135*70
$GPVTG,0.0,T,,M,0.10,N,0.18,K,D*00
$GPGGA,211744.00,3929.027928,N,08719.382763,W,2,04,2.5,164.534,M,-34.248,M,2.0,0135*7E
$GPVTG,287.8,T,,M,0.23,N,0.42,K,D*0A
$GPGGA,211744.10,3929.027961,N,08719.382758,W,2,04,2.5,164.596,M,-34.248,M,2.0,0135*72
$GPVTG,167.4,T,,M,0.45,N,0.84,K,D*01
$GPGGA,211744.20,3929.027963,N,08719.382758,W,2,04,2.5,164.611,M,-34.248,M,2.0,0135*7F
$GPVTG,3.0,T,,M,0.30,N,0.56,K,D*0B
$GPGGA,211744.30,3929.027963,N,08719.382757,W,2,04,2.5,164.600,M,-34.248,M,2.0,0135*71
$GPVTG,99.2,T,,M,0.21,N,0.39,K,D*33
$GPGGA,211744.40,3929.027963,N,08719.382756,W,2,04,2.5,164.605,M,-34.248,M,2.0,0135*72
$GPVTG,0.0,T,,M,0.10,N,0.18,K,D*00
$GPGGA,211744.50,3929.027961,N,08719.382758,W,2,04,2.5,164.604,M,-34.248,M,2.0,0135*7E
$GPVTG,0.0,T,,M,0.09,N,0.17,K,D*07
$GPGGA,211744.60,3929.027963,N,08719.382757,W,2,04,2.5,164.607,M,-34.248,M,2.0,0135*73
$GPVTG,0.0,T,,M,0.12,N,0.23,K,D*0A
$GPGGA,211744.70,3929.027963,N,08719.382755,W,2,04,2.5,164.598,M,-34.248,M,2.0,0135*75
$GPVTG,0.0,T,,M,0.19,N,0.35,K,D*06
$GPGGA,211744.80,3929.027963,N,08719.382753,W,2,04,2.5,164.593,M,-34.248,M,2.0,0135*77
$GPVTG,0.0,T,,M,0.13,N,0.23,K,D*0B
$GPGGA,211744.90,3929.027961,N,08719.382759,W,2,04,2.5,164.598,M,-34.248,M,2.0,0135*75
$GPVTG,246.6,T,,M,0.22,N,0.41,K,D*0B
$GPGGA,211745.00,3929.027960,N,08719.382759,W,2,04,2.5,164.601,M,-34.248,M,2.0,0135*7F
$GPVTG,0.0,T,,M,0.07,N,0.13,K,D*0D
$GPGGA,211745.10,3929.027969,N,08719.382757,W,2,04,2.5,164.612,M,-34.248,M,3.0,0135*7A
$GPVTG,144.8,T,,M,0.29,N,0.55,K,D*0A
$GPGGA,211745.20,3929.027970,N,08719.382756,W,2,04,2.5,164.617,M,-34.248,M,3.0,0135*75
$GPVTG,0.0,T,,M,0.11,N,0.20,K,D*0A
$GPGGA,211745.30,3929.027969,N,08719.382759,W,2,04,2.5,164.617,M,-34.248,M,3.0,0135*73
$GPVTG,0.0,T,,M,0.07,N,0.13,K,D*0D
$GPGGA,211745.40,3929.027969,N,08719.382759,W,2,04,2.5,164.593,M,-34.248,M,3.0,0135*7B
$GPVTG,300.0,T,,M,0.46,N,0.86,K,D*07
$GPGGA,211745.50,3929.027971,N,08719.382761,W,2,04,2.5,164.606,M,-34.248,M,3.0,0135*77
$GPVTG,313.3,T,,M,0.27,N,0.50,K,D*0A
$GPGGA,211745.60,3929.027970,N,08719.382758,W,2,04,2.5,164.613,M,-34.248,M,3.0,0135*7B
$GPVTG,0.0,T,,M,0.15,N,0.28,K,D*06
$GPGGA,211745.70,3929.027969,N,08719.382759,W,2,04,2.5,164.610,M,-34.248,M,3.0,0135*70
$GPVTG,0.0,T,,M,0.07,N,0.12,K,D*0C
$GPGGA,211745.80,3929.027970,N,08719.382760,W,2,04,2.5,164.620,M,-34.248,M,3.0,0135*7E
$GPVTG,0.0,T,,M,0.20,N,0.36,K,D*0F
$GPGGA,211745.90,3929.027968,N,08719.382763,W,2,04,2.5,164.621,M,-34.248,M,3.0,0135*74
$GPVTG,0.0,T,,M,0.09,N,0.17,K,D*07
$GPGGA,211746.00,3929.027970,N,08719.382760,W,2,04,2.5,164.618,M,-34.248,M,3.0,0135*7E
$GPVTG,0.0,T,,M,0.12,N,0.22,K,D*0B
$GPGGA,211746.10,3929.027986,N,08719.382767,W,2,04,2.5,164.675,M,-34.248,M,4.0,0135*7D
$GPVTG,241.9,T,,M,0.20,N,0.38,K,D*0F
$GPGGA,211746.20,3929.027989,N,08719.382760,W,2,04,2.5,164.680,M,-34.248,M,4.0,0135*7C
$GPVTG,57.8,T,,M,0.24,N,0.45,K,D*35
$GPGGA,211746.30,3929.027987,N,08719.382758,W,2,04,2.5,164.658,M,-34.248,M,4.0,0135*7D
$GPVTG,145.8,T,,M,0.44,N,0.82,K,D*0A
$GPGGA,211746.40,3929.027985,N,08719.382762,W,2,04,2.5,164.678,M,-34.248,M,4.0,0135*73
$GPVTG,230.0,T,,M,0.42,N,0.78,K,D*00
$GPGGA,211746.50,3929.027992,N,08719.382758,W,2,04,2.5,164.687,M,-34.248,M,4.0,0135*7D
$GPVTG,22.4,T,,M,0.32,N,0.59,K,D*31
$GPGGA,211746.60,3929.027984,N,08719.382764,W,2,04,2.5,164.668,M,-34.248,M,4.0,0135*77
$GPVTG,211.7,T,,M,0.50,N,0.93,K,D*02
$GPGGA,211746.70,3929.027986,N,08719.382762,W,2,04,2.5,164.657,M,-34.248,M,4.0,0135*7E
$GPVTG,40.2,T,,M,0.22,N,0.40,K,D*3A
$GPGGA,211746.80,3929.027985,N,08719.382762,W,2,04,2.5,164.667,M,-34.248,M,4.0,0135*71
$GPVTG,0.0,T,,M,0.19,N,0.35,K,D*06
$GPGGA,211746.90,3929.027986,N,08719.382759,W,2,04,2.5,164.665,M,-34.248,M,4.0,0135*79
$GPVTG,0.0,T,,M,0.10,N,0.19,K,D*01
$GPGGA,211747.00,3929.027986,N,08719.382763,W,2,04,2.5,164.680,M,-34.248,M,4.0,0135*73
$GPVTG,277.8,T,,M,0.31,N,0.58,K,D*0D
$GPGGA,211747.10,3929.027990,N,08719.382764,W,2,04,2.5,164.704,M,-34.248,M,5.0,0135*7E
$GPVTG,0.0,T,,M,0.04,N,0.08,K,D*04
$GPGGA,211747.20,3929.027989,N,08719.382759,W,2,04,2.5,164.702,M,-34.248,M,5.0,0135*7D
$GPVTG,0.0,T,,M,0.15,N,0.27,K,D*09
$GPGGA,211747.30,3929.027990,N,08719.382765,W,2,04,2.5,164.705,M,-34.248,M,5.0,0135*7C
$GPVTG,0.0,T,,M,0.18,N,0.34,K,D*06
$GPGGA,211747.40,3929.027986,N,08719.382770,W,2,04,2.5,164.708,M,-34.248,M,5.0,0135*75
$GPVTG,227.2,T,,M,0.20,N,0.38,K,D*04
$GPGGA,211747.50,3929.027987,N,08719.382766,W,2,04,2.5,164.702,M,-34.248,M,5.0,0135*78
$GPVTG,0.0,T,,M,0.16,N,0.30,K,D*0C
$GPGGA,211747.60,3929.027989,N,08719.382764,W,2,04,2.5,164.693,M,-34.248,M,5.0,0135*7E
$GPVTG,33.4,T,,M,0.20,N,0.37,K,D*3A
$GPGGA,211747.70,3929.027990,N,08719.382764,W,2,04,2.5,164.709,M,-34.248,M,5.0,0135*75
$GPVTG,359.9,T,,M,0.32,N,0.59,K,D*03
$GPGGA,211747.80,3929.027990,N,08719.382766,W,2,04,2.5,164.709,M,-34.248,M,5.0,0135*78
$GPVTG,0.0,T,,M,0.04,N,0.07,K,D*0B
$GPGGA,211747.90,3929.027989,N,08719.382766,W,2,04,2.5,164.701,M,-34.248,M,5.0,0135*79
$GPVTG,0.0,T,,M,0.16,N,0.30,K,D*0C
$GPGGA,211748.00,3929.027989,N,08719.382768,W,2,04,2.5,164.706,M,-34.248,M,5.0,0135*76
$GPVTG,0.0,T,,M,0.11,N,0.20,K,D*0A
$GPGGA,211748.10,3929.027985,N,08719.382769,W,2,04,2.5,164.709,M,-34.248,M,6.0,0135*76
$GPVTG,0.0,T,,M,0.06,N,0.11,K,D*0E
$GPGGA,211748.20,3929.027984,N,08719.382769,W,2,04,2.5,164.696,M,-34.248,M,6.0,0135*73
$GPVTG,195.1,T,,M,0.27,N,0.49,K,D*0C
$GPGGA,211748.30,3929.027985,N,08719.382770,W,2,04,2.5,164.720,M,-34.248,M,6.0,0135*77
$GPVTG,324.9,T,,M,0.47,N,0.87,K,D*08
$GPGGA,211748.40,3929.027981,N,08719.382774,W,2,04,2.5,164.695,M,-34.248,M,6.0,0135*7F
$GPVTG,209.4,T,,M,0.51,N,0.95,K,D*0F
$GPGGA,211748.50,3929.027984,N,08719.382770,W,2,04,2.5,164.715,M,-34.248,M,6.0,0135*76
$GPVTG,40.4,T,,M,0.42,N,0.79,K,D*30
$GPGGA,211748.60,3929.027987,N,08719.382773,W,2,04,2.5,164.725,M,-34.248,M,6.0,0135*76
$GPVTG,321.0,T,,M,0.21,N,0.39,K,D*01
$GPGGA,211748.70,3929.027983,N,08719.382770,W,2,04,2.5,164.699,M,-34.248,M,6.0,0135*76
$GPVTG,150.9,T,,M,0.52,N,0.96,K,D*0D
$GPGGA,211748.80,3929.027988,N,08719.382765,W,2,04,2.5,164.724,M,-34.248,M,6.0,0135*71
$GPVTG,41.2,T,,M,0.54,N,0.99,K,D*3E
$GPGGA,211748.90,3929.027986,N,08719.382770,W,2,04,2.5,164.718,M,-34.248,M,6.0,0135*75
$GPVTG,0.0,T,,M,0.18,N,0.33,K,D*01
$GPGGA,211749.00,3929.027983,N,08719.382774,W,2,04,2.5,164.716,M,-34.248,M,6.0,0135*72
$GPVTG,0.0,T,,M,0.17,N,0.32,K,D*0F
$GPGGA,211749.10,3929.028044,N,08719.382750,W,2,04,2.5,164.810,M,-34.248,M,2.0,0135*75
$GPVTG,73.7,T,,M,0.27,N,0.51,K,D*3A
$GPGGA,211749.20,3929.028043,N,08719.382755,W,2,04,2.5,164.824,M,-34.248,M,2.0,0135*73
$GPVTG,263.0,T,,M,0.30,N,0.55,K,D*0C
$GPGGA,211749.30,3929.028043,N,08719.382752,W,2,04,2.5,164.818,M,-34.248,M,2.0,0135*7A
$GPVTG,0.0,T,,M,0.14,N,0.26,K,D*09
$GPGGA,211749.40,3929.028045,N,08719.382754,W,2,04,2.5,164.831,M,-34.248,M,2.0,0135*76
$GPVTG,323.1,T,,M,0.28,N,0.52,K,D*06
$GPGGA,211749.50,3929.028043,N,08719.382757,W,2,04,2.5,164.817,M,-34.248,M,2.0,0135*76
$GPVTG,221.2,T,,M,0.31,N,0.57,K,D*0B
$GPGGA,211749.60,3929.028046,N,08719.382758,W,2,04,2.5,164.827,M,-34.248,M,2.0,0135*7C
$GPVTG,352.3,T,,M,0.22,N,0.40,K,D*0B
$GPGGA,211749.70,3929.028045,N,08719.382756,W,2,04,2.5,164.823,M,-34.248,M,2.0,0135*74
$GPVTG,0.0,T,,M,0.11,N,0.20,K,D*0A
$GPGGA,211749.80,3929.028044,N,08719.382759,W,2,04,2.5,164.827,M,-34.248,M,2.0,0135*71
$GPVTG,0.0,T,,M,0.13,N,0.24,K,D*0C
$GPGGA,211749.90,3929.028045,N,08719.382757,W,2,04,2.5,164.832,M,-34.248,M,2.0,0135*7B
$GPVTG,0.0,T,,M,0.13,N,0.24,K,D*0C
$GPGGA,211750.00,3929.028044,N,08719.382757,W,2,04,2.5,164.836,M,-34.248,M,2.0,0135*7F
$GPVTG,0.0,T,,M,0.09,N,0.17,K,D*07
$GPGGA,211750.10,3929.028015,N,08719.382768,W,2,04,2.5,164.798,M,-34.248,M,2.0,0135*7D
$GPVTG,0.0,T,,M,0.14,N,0.26,K,D*09
$GPGGA,211750.20,3929.028014,N,08719.382772,W,2,04,2.5,164.802,M,-34.248,M,2.0,0135*78
$GPVTG,0.0,T,,M,0.14,N,0.26,K,D*09
$GPGGA,211750.30,3929.028013,N,08719.382770,W,2,04,2.5,164.792,M,-34.248,M,2.0,0135*7A
$GPVTG,0.0,T,,M,0.20,N,0.37,K,D*0E
$GPGGA,211750.40,3929.028016,N,08719.382770,W,2,04,2.5,164.797,M,-34.248,M,2.0,0135*7D
$GPVTG,0.0,T,,M,0.14,N,0.26,K,D*09
$GPGGA,211750.50,3929.028014,N,08719.382774,W,2,04,2.5,164.802,M,-34.248,M,2.0,0135*79
$GPVTG,0.0,T,,M,0.17,N,0.31,K,D*0C
$GPGGA,211750.60,3929.028015,N,08719.382768,W,2,04,2.5,164.781,M,-34.248,M,2.0,0135*72
$GPVTG,80.9,T,,M,0.44,N,0.81,K,D*30
$GPGGA,211750.70,3929.028017,N,08719.382768,W,2,04,2.5,164.792,M,-34.248,M,2.0,0135*73
$GPVTG,4.5,T,,M,0.22,N,0.41,K,D*0C
$GPGGA,211750.80,3929.028014,N,08719.382776,W,2,04,2.5,164.810,M,-34.248,M,2.0,0135*75
$GPVTG,241.3,T,,M,0.42,N,0.79,K,D*04
$GPGGA,211750.90,3929.028015,N,08719.382772,W,2,04,2.5,164.793,M,-34.248,M,2.0,0135*75
$GPVTG,68.1,T,,M,0.35,N,0.65,K,D*32
$GPGGA,211751.00,3929.028013,N,08719.382771,W,2,04,2.5,164.800,M,-34.248,M,2.0,0135*7D
$GPVTG,0.0,T,,M,0.16,N,0.29,K,D*04
$GPGGA,211751.10,3929.028004,N,08719.382773,W,2,04,2.5,164.791,M,-34.248,M,3.0,0135*7E
$GPVTG,0.0,T,,M,0.05,N,0.08,K,D*05
$GPGGA,211751.20,3929.028003,N,08719.382776,W,2,04,2.5,164.797,M,-34.248,M,3.0,0135*79
$GPVTG,0.0,T,,M,0.16,N,0.29,K,D*04
$GPGGA,211751.30,3929.028007,N,08719.382770,W,2,04,2.5,164.803,M,-34.248,M,3.0,0135*78
$GPVTG,52.5,T,,M,0.24,N,0.44,K,D*3C
$GPGGA,211751.40,3929.028007,N,08719.382771,W,2,04,2.5,164.808,M,-34.248,M,3.0,0135*75
$GPVTG,0.0,T,,M,0.11,N,0.21,K,D*0B
$GPGGA,211751.50,3929.028006,N,08719.382771,W,2,04,2.5,164.796,M,-34.248,M,3.0,0135*7D
$GPVTG,205.5,T,,M,0.24,N,0.44,K,D*0C
$GPGGA,211751.60,3929.028002,N,08719.382776,W,2,04,2.5,164.793,M,-34.248,M,3.0,0135*78
$GPVTG,0.0,T,,M,0.19,N,0.35,K,D*06
$GPGGA,211751.70,3929.028005,N,08719.382773,W,2,04,2.5,164.802,M,-34.248,M,3.0,0135*7C
$GPVTG,37.9,T,,M,0.23,N,0.42,K,D*32
$GPGGA,211751.80,3929.028004,N,08719.382772,W,2,04,2.5,164.794,M,-34.248,M,3.0,0135*73
$GPVTG,0.0,T,,M,0.17,N,0.31,K,D*0C
$GPGGA,211751.90,3929.028005,N,08719.382774,W,2,04,2.5,164.800,M,-34.248,M,3.0,0135*77
$GPVTG,0.0,T,,M,0.14,N,0.25,K,D*0A
$GPGGA,211752.00,3929.028006,N,08719.382771,W,2,04,2.5,164.794,M,-34.248,M,3.0,0135*79
$GPVTG,0.0,T,,M,0.14,N,0.26,K,D*09
$GPGGA,211752.10,3929.028001,N,08719.382770,W,2,04,2.5,164.789,M,-34.248,M,4.0,0135*75
$GPVTG,0.0,T,,M,0.14,N,0.26,K,D*09
$GPGGA,211752.20,3929.028002,N,08719.382771,W,2,04,2.5,164.800,M,-34.248,M,4.0,0135*7A
$GPVTG,310.5,T,,M,0.23,N,0.43,K,D*09
$GPGGA,211752.30,3929.027999,N,08719.382771,W,2,04,2.5,164.792,M,-34.248,M,4.0,0135*7B
$GPVTG,0.0,T,,M,0.18,N,0.33,K,D*01
$GPGGA,211752.40,3929.028000,N,08719.382772,W,2,04,2.5,164.798,M,-34.248,M,4.0,0135*73
$GPVTG,0.0,T,,M,0.12,N,0.22,K,D*0B
$GPGGA,211752.50,3929.028001,N,08719.382771,W,2,04,2.5,164.811,M,-34.248,M,4.0,0135*7E
$GPVTG,19.7,T,,M,0.26,N,0.49,K,D*3E
$GPGGA,211752.60,3929.027999,N,08719.382778,W,2,04,2.5,164.816,M,-34.248,M,4.0,0135*74
$GPVTG,248.2,T,,M,0.23,N,0.42,K,D*03
$GPGGA,211752.70,3929.027998,N,08719.382774,W,2,04,2.5,164.797,M,-34.248,M,4.0,0135*7E
$GPVTG,115.4,T,,M,0.38,N,0.71,K,D*04
$GPGGA,211752.80,3929.028000,N,08719.382770,W,2,04,2.5,164.801,M,-34.248,M,4.0,0135*72
$GPVTG,0.0,T,,M,0.14,N,0.26,K,D*09
$GPGGA,211752.90,3929.027998,N,08719.382780,W,2,04,2.5,164.823,M,-34.248,M,4.0,0135*7B
$GPVTG,261.1,T,,M,0.51,N,0.95,K,D*04
$GPGGA,211753.00,3929.028000,N,08719.382775,W,2,04,2.5,164.805,M,-34.248,M,4.0,0135*7A
$GPVTG,67.2,T,,M,0.38,N,0.71,K,D*36
$GPGGA,211753.10,3929.027994,N,08719.382771,W,2,04,2.5,164.786,M,-34.248,M,5.0,0135*71
$GPVTG,0.0,T,,M,0.20,N,0.37,K,D*0E
$GPGGA,211753.20,3929.027996,N,08719.382774,W,2,04,2.5,164.804,M,-34.248,M,5.0,0135*70
$GPVTG,303.1,T,,M,0.36,N,0.66,K,D*0C
$GPGGA,211753.30,3929.027997,N,08719.382773,W,2,04,2.5,164.812,M,-34.248,M,5.0,0135*70
$GPVTG,0.0,T,,M,0.17,N,0.31,K,D*0C
$GPGGA,211753.40,3929.027996,N,08719.382776,W,2,04,2.5,164.803,M,-34.248,M,5.0,0135*73
$GPVTG,0.0,T,,M,0.19,N,0.35,K,D*06
$GPGGA,211753.50,3929.028000,N,08719.382772,W,2,04,2.5,164.801,M,-34.248,M,5.0,0135*7D
$GPVTG,0.0,T,,M,0.19,N,0.35,K,D*06
$GPGGA,211753.60,3929.028000,N,08719.382770,W,2,04,2.5,164.799,M,-34.248,M,5.0,0135*72
$GPVTG,0.0,T,,M,0.07,N,0.13,K,D*0D
$GPGGA,211753.70,3929.027998,N,08719.382771,W,2,04,2.5,164.803,M,-34.248,M,5.0,0135*79
$GPVTG,0.0,T,,M,0.12,N,0.23,K,D*0A
$GPGGA,211753.80,3929.028001,N,08719.382772,W,2,04,2.5,164.815,M,-34.248,M,5.0,0135*74
$GPVTG,353.7,T,,M,0.26,N,0.48,K,D*02
$GPGGA,211753.90,3929.027999,N,08719.382774,W,2,04,2.5,164.818,M,-34.248,M,5.0,0135*79
$GPVTG,0.0,T,,M,0.10,N,0.18,K,D*00
$GPGGA,211754.00,3929.028001,N,08719.382771,W,2,04,2.5,164.818,M,-34.248,M,5.0,0135*75
$GPVTG,0.0,T,,M,0.10,N,0.18,K,D*00
$GPGGA,211754.10,3929.028005,N,08719.382771,W,2,04,2.5,164.832,M,-34.248,M,6.0,0135*7B
$GPVTG,195.9,T,,M,0.25,N,0.46,K,D*09
$GPGGA,211754.20,3929.028007,N,08719.382772,W,2,04,2.5,164.837,M,-34.248,M,6.0,0135*7C
$GPVTG,0.0,T,,M,0.12,N,0.23,K,D*0A
$GPGGA,211754.30,3929.028004,N,08719.382773,W,2,04,2.5,164.838,M,-34.248,M,6.0,0135*70
$GPVTG,0.0,T,,M,0.13,N,0.25,K,D*0D
$GPGGA,211754.40,3929.028003,N,08719.382775,W,2,04,2.5,164.833,M,-34.248,M,6.0,0135*7D
$GPVTG,0.0,T,,M,0.12,N,0.21,K,D*08
$GPGGA,211754.50,3929.028007,N,08719.382771,W,2,04,2.5,164.834,M,-34.248,M,6.0,0135*7B
$GPVTG,0.0,T,,M,0.20,N,0.36,K,D*0F
$GPGGA,211754.60,3929.028003,N,08719.382772,W,2,04,2.5,164.816,M,-34.248,M,6.0,0135*7F
$GPVTG,194.5,T,,M,0.38,N,0.70,K,D*0D
$GPGGA,211754.70,3929.028005,N,08719.382772,W,2,04,2.5,164.819,M,-34.248,M,6.0,0135*77
$GPVTG,0.0,T,,M,0.07,N,0.13,K,D*0D
$GPGGA,211754.80,3929.028005,N,08719.382774,W,2,04,2.5,164.838,M,-34.248,M,6.0,0135*7D
$GPVTG,266.4,T,,M,0.37,N,0.68,K,D*04
$GPGGA,211754.90,3929.028004,N,08719.382771,W,2,04,2.5,164.824,M,-34.248,M,6.0,0135*75
$GPVTG,108.3,T,,M,0.27,N,0.51,K,D*03
$GPGGA,211755.00,3929.028004,N,08719.382772,W,2,04,2.5,164.833,M,-34.248,M,6.0,0135*78
$GPVTG,0.0,T,,M,0.17,N,0.31,K,D*0C
$GPGGA,211755.10,3929.027931,N,08719.382791,W,2,04,2.5,164.694,M,-34.248,M,2.0,0135*73
$GPVTG,354.0,T,,M,0.30,N,0.56,K,D*0A
$GPGGA,211755.20,3929.027929,N,08719.382793,W,2,04,2.5,164.682,M,-34.248,M,2.0,0135*7C
$GPVTG,232.7,T,,M,0.25,N,0.45,K,D*0A
$GPGGA,211755.30,3929.027928,N,08719.382795,W,2,04,2.5,164.684,M,-34.248,M,2.0,0135*7C
$GPVTG,0.0,T,,M,0.09,N,0.16,K,D*06
$GPGGA,211755.40,3929.027930,N,08719.382793,W,2,04,2.5,164.684,M,-34.248,M,2.0,0135*74
$GPVTG,0.0,T,,M,0.08,N,0.15,K,D*04
$GPGGA,211755.50,3929.027930,N,08719.382792,W,2,04,2.5,164.681,M,-34.248,M,2.0,0135*71
$GPVTG,0.0,T,,M,0.08,N,0.14,K,D*05
$GPGGA,211755.60,3929.027929,N,08719.382794,W,2,04,2.5,164.681,M,-34.248,M,2.0,0135*7C
$GPVTG,0.0,T,,M,0.07,N,0.13,K,D*0D
$GPGGA,211755.70,3929.027931,N,08719.382789,W,2,04,2.5,164.699,M,-34.248,M,2.0,0135*71
$GPVTG,60.4,T,,M,0.39,N,0.72,K,D*35
$GPGGA,211755.80,3929.027926,N,08719.382799,W,2,04,2.5,164.679,M,-34.248,M,2.0,0135*77
$GPVTG,235.2,T,,M,0.50,N,0.93,K,D*01
$GPGGA,211755.90,3929.027931,N,08719.382795,W,2,04,2.5,164.693,M,-34.248,M,2.0,0135*78
$GPVTG,31.2,T,,M,0.36,N,0.66,K,D*3D
$GPGGA,211756.00,3929.027929,N,08719.382794,W,2,04,2.5,164.670,M,-34.248,M,2.0,0135*77
$GPVTG,164.1,T,,M,0.46,N,0.84,K,D*04
$GPGGA,211756.10,3929.027972,N,08719.382783,W,2,04,2.5,164.775,M,-34.248,M,2.0,0135*7A
$GPVTG,0.0,T,,M,0.14,N,0.27,K,D*08
$GPGGA,211756.20,3929.027973,N,08719.382783,W,2,04,2.5,164.794,M,-34.248,M,2.0,0135*77
$GPVTG,4.9,T,,M,0.37,N,0.69,K,D*0E
$GPGGA,211756.30,3929.027971,N,08719.382786,W,2,04,2.5,164.788,M,-34.248,M,2.0,0135*7C
$GPVTG,0.0,T,,M,0.17,N,0.31,K,D*0C
$GPGGA,211756.40,3929.027970,N,08719.382788,W,2,04,2.5,164.779,M,-34.248,M,2.0,0135*7A
$GPVTG,0.0,T,,M,0.18,N,0.33,K,D*01
$GPGGA,211756.50,3929.027970,N,08719.382786,W,2,04,2.5,164.772,M,-34.248,M,2.0,0135*7E
$GPVTG,0.0,T,,M,0.16,N,0.30,K,D*0C
$GPGGA,211756.60,3929.027968,N,08719.382788,W,2,04,2.5,164.769,M,-34.248,M,2.0,0135*70
$GPVTG,0.0,T,,M,0.10,N,0.18,K,D*00
$GPGGA,211756.70,3929.027972,N,08719.382786,W,2,04,2.5,164.789,M,-34.248,M,2.0,0135*7A
$GPVTG,16.0,T,,M,0.40,N,0.74,K,D*38
$GPGGA,211756.80,3929.027969,N,08719.382786,W,2,04,2.5,164.782,M,-34.248,M,2.0,0135*74
$GPVTG,0.0,T,,M,0.17,N,0.31,K,D*0C
$GPGGA,211756.90,3929.027970,N,08719.382785,W,2,04,2.5,164.777,M,-34.248,M,2.0,0135*74
$GPVTG,0.0,T,,M,0.11,N,0.20,K,D*0A
$GPGGA,211757.00,3929.027970,N,08719.382783,W,2,04,2.5,164.782,M,-34.248,M,2.0,0135*70
$GPVTG,0.0,T,,M,0.13,N,0.24,K,D*0C
$GPGGA,211757.10,3929.027975,N,08719.382787,W,2,04,2.5,164.798,M,-34.248,M,3.0,0135*7A
$GPVTG,260.8,T,,M,0.25,N,0.45,K,D*02
$GPGGA,211757.20,3929.027976,N,08719.382782,W,2,04,2.5,164.804,M,-34.248,M,3.0,0135*75
$GPVTG,0.0,T,,M,0.19,N,0.35,K,D*06
$GPGGA,211757.30,3929.027973,N,08719.382785,W,2,04,2.5,164.796,M,-34.248,M,3.0,0135*72
$GPVTG,215.7,T,,M,0.21,N,0.40,K,D*0E
$GPGGA,211757.40,3929.027975,N,08719.382780,W,2,04,2.5,164.784,M,-34.248,M,3.0,0135*75
$GPVTG,60.7,T,,M,0.29,N,0.54,K,D*33
$GPGGA,211757.50,3929.027974,N,08719.382782,W,2,04,2.5,164.780,M,-34.248,M,3.0,0135*73
$GPVTG,0.0,T,,M,0.09,N,0.17,K,D*07
$GPGGA,211757.60,3929.027972,N,08719.382785,W,2,04,2.5,164.794,M,-34.248,M,3.0,0135*74
$GPVTG,238.6,T,,M,0.28,N,0.51,K,D*09
$GPGGA,211757.70,3929.027975,N,08719.382785,W,2,04,2.5,164.806,M,-34.248,M,3.0,0135*76
$GPVTG,357.3,T,,M,0.27,N,0.50,K,D*0A
$GPGGA,211757.80,3929.027976,N,08719.382783,W,2,04,2.5,164.791,M,-34.248,M,3.0,0135*7D
$GPVTG,56.1,T,,M,0.30,N,0.56,K,D*3A
$GPGGA,211757.90,3929.027978,N,08719.382785,W,2,04,2.5,164.786,M,-34.248,M,3.0,0135*72
$GPVTG,0.0,T,,M,0.15,N,0.27,K,D*09
$GPGGA,211758.00,3929.027986,N,08719.382786,W,2,04,2.5,164.786,M,-34.248,M,3.0,0135*76
$GPVTG,354.5,T,,M,0.27,N,0.49,K,D*07
$GPGGA,211758.10,3929.027990,N,08719.382803,W,2,04,2.5,164.796,M,-34.248,M,4.0,0135*74
$GPVTG,247.5,T,,M,0.54,N,1.00,K,D*0C
$GPGGA,211758.20,3929.027991,N,08719.382805,W,2,04,2.5,164.797,M,-34.248,M,4.0,0135*71
$GPVTG,0.0,T,,M,0.06,N,0.11,K,D*0E
$GPGGA,211758.30,3929.027985,N,08719.382815,W,2,04,2.5,164.777,M,-34.248,M,4.0,0135*7A
$GPVTG,234.0,T,,M,0.52,N,0.96,K,D*05
$GPGGA,211758.40,3929.027974,N,08719.382845,W,2,04,2.5,164.784,M,-34.248,M,4.0,0135*7A
$GPVTG,245.4,T,,M,0.94,N,1.74,K,D*00
$GPGGA,211758.50,3929.027969,N,08719.382865,W,2,04,2.5,164.791,M,-34.248,M,4.0,0135*71
$GPVTG,251.9,T,,M,0.60,N,1.12,K,D*03
$GPGGA,211758.60,3929.027973,N,08719.382874,W,2,04,2.5,164.801,M,-34.248,M,4.0,0135*7F
$GPVTG,301.9,T,,M,0.34,N,0.62,K,D*00
$GPGGA,211758.70,3929.027980,N,08719.382889,W,2,04,2.5,164.823,M,-34.248,M,4.0,0135*70
$GPVTG,299.5,T,,M,0.67,N,1.23,K,D*0E
$GPGGA,211758.80,3929.027986,N,08719.382904,W,2,04,2.5,164.825,M,-34.248,M,4.0,0135*7B
$GPVTG,295.5,T,,M,0.46,N,0.86,K,D*0F
$GPGGA,211758.90,3929.027987,N,08719.382929,W,2,04,2.5,164.858,M,-34.248,M,4.0,0135*7E
$GPVTG,272.5,T,,M,0.94,N,1.75,K,D*04
$GPGGA,211759.00,3929.027983,N,08719.382952,W,2,04,2.5,164.859,M,-34.248,M,4.0,0135*7F
$GPVTG,257.7,T,,M,0.67,N,1.24,K,D*09
$GPGGA,211759.10,3929.028008,N,08719.382966,W,2,04,2.5,164.846,M,-34.248,M,5.0,0135*73
$GPVTG,271.1,T,,M,1.26,N,2.34,K,D*0D
$GPGGA,211759.20,3929.028003,N,08719.382985,W,2,04,2.5,164.795,M,-34.248,M,5.0,0135*77
$GPVTG,252.1,T,,M,1.13,N,2.09,K,D*04
$GPGGA,211759.30,3929.028004,N,08719.383006,W,2,04,2.5,164.842,M,-34.248,M,5.0,0135*77
$GPVTG,275.2,T,,M,1.09,N,2.03,K,D*03
$GPGGA,211759.40,3929.028008,N,08719.383025,W,2,04,2.5,164.899,M,-34.248,M,5.0,0135*7B
$GPVTG,281.9,T,,M,1.23,N,2.28,K,D*02
$GPGGA,211759.50,3929.028008,N,08719.383050,W,2,04,2.5,164.921,M,-34.248,M,5.0,0135*7A
$GPVTG,271.2,T,,M,0.80,N,1.48,K,D*0B
$GPGGA,211759.60,3929.028015,N,08719.383072,W,2,04,2.5,164.902,M,-34.248,M,5.0,0135*74
$GPVTG,292.7,T,,M,0.77,N,1.42,K,D*01
$GPGGA,211759.70,3929.028018,N,08719.383095,W,2,04,2.5,164.800,M,-34.248,M,5.0,0135*72
$GPVTG,277.7,T,,M,2.09,N,3.87,K,D*0A
$GPGGA,211759.80,3929.028013,N,08719.383113,W,2,04,2.5,164.827,M,-34.248,M,5.0,0135*7C
$GPVTG,252.9,T,,M,0.74,N,1.38,K,D*0D
$GPGGA,211759.90,3929.028014,N,08719.383127,W,2,04,2.5,164.860,M,-34.248,M,5.0,0135*7E
$GPVTG,271.4,T,,M,0.75,N,1.39,K,D*01
$GPGGA,211800.00,3929.028016,N,08719.383145,W,2,04,2.5,164.907,M,-34.248,M,5.0,0135*72
$GPVTG,278.5,T,,M,1.06,N,1.96,K,D*09
$GPGGA,211800.10,3929.027995,N,08719.383165,W,2,04,2.5,164.762,M,-34.248,M,6.0,0135*72
$GPVTG,284.5,T,,M,0.89,N,1.65,K,D*00
$GPGGA,211800.20,3929.028002,N,08719.383190,W,2,04,2.5,164.745,M,-34.248,M,6.0,0135*76
$GPVTG,288.5,T,,M,0.79,N,1.47,K,D*03
$GPGGA,211800.30,3929.028003,N,08719.383212,W,2,04,2.5,164.690,M,-34.248,M,6.0,0135*76
$GPVTG,276.0,T,,M,1.24,N,2.31,K,D*0C
$GPGGA,211800.40,3929.028002,N,08719.383224,W,2,04,2.5,164.678,M,-34.248,M,6.0,0135*73
$GPVTG,258.2,T,,M,0.41,N,0.75,K,D*02
$GPGGA,211800.50,3929.028002,N,08719.383234,W,2,04,2.5,164.689,M,-34.248,M,6.0,0135*7D
$GPVTG,273.4,T,,M,0.35,N,0.65,K,D*0F
$GPGGA,211800.60,3929.028000,N,08719.383242,W,2,04,2.5,164.695,M,-34.248,M,6.0,0135*70
$GPVTG,256.2,T,,M,0.26,N,0.48,K,D*03
$GPGGA,211800.70,3929.027997,N,08719.383246,W,2,04,2.5,164.692,M,-34.248,M,6.0,0135*7A
$GPVTG,0.0,T,,M,0.16,N,0.30,K,D*0C
$GPGGA,211800.80,3929.028000,N,08719.383249,W,2,04,2.5,164.691,M,-34.248,M,6.0,0135*71
$GPVTG,0.0,T,,M,0.12,N,0.22,K,D*0B
$GPGGA,211800.90,3929.028002,N,08719.383253,W,2,04,2.5,164.703,M,-34.248,M,6.0,0135*73
$GPVTG,306.8,T,,M,0.27,N,0.51,K,D*04
$GPGGA,211801.00,3929.027994,N,08719.383251,W,2,04,2.5,164.697,M,-34.248,M,6.0,0135*7C
$GPVTG,171.8,T,,M,0.29,N,0.55,K,D*0C
$GPGGA,211801.10,3929.028061,N,08719.383239,W,2,04,2.5,164.810,M,-34.248,M,2.0,0135*7A
$GPVTG,125.1,T,,M,0.42,N,0.78,K,D*06
$GPGGA,211801.20,3929.028058,N,08719.383235,W,2,04,2.5,164.811,M,-34.248,M,2.0,0135*7E
$GPVTG,0.0,T,,M,0.13,N,0.23,K,D*0B
$GPGGA,211801.30,3929.028060,N,08719.383226,W,2,04,2.5,164.802,M,-34.248,M,2.0,0135*74
$GPVTG,79.7,T,,M,0.32,N,0.59,K,D*3C
$GPGGA,211801.40,3929.028065,N,08719.383222,W,2,04,2.5,164.810,M,-34.248,M,2.0,0135*71
$GPVTG,29.1,T,,M,0.30,N,0.55,K,D*31
$GPGGA,211801.50,3929.028067,N,08719.383216,W,2,04,2.5,164.804,M,-34.248,M,2.0,0135*70
$GPVTG,69.3,T,,M,0.23,N,0.42,K,D*33
$GPGGA,211801.60,3929.028065,N,08719.383220,W,2,04,2.5,164.792,M,-34.248,M,2.0,0135*74
$GPVTG,235.1,T,,M,0.28,N,0.51,K,D*03
$GPGGA,211801.70,3929.028061,N,08719.383228,W,2,04,2.5,164.800,M,-34.248,M,2.0,0135*7D
$GPVTG,234.2,T,,M,0.32,N,0.59,K,D*02
$GPGGA,211801.80,3929.028061,N,08719.383225,W,2,04,2.5,164.799,M,-34.248,M,2.0,0135*70
$GPVTG,0.0,T,,M,0.08,N,0.15,K,D*04
$GPGGA,211801.90,3929.028062,N,08719.383227,W,2,04,2.5,164.784,M,-34.248,M,2.0,0135*7C
$GPVTG,300.6,T,,M,0.29,N,0.54,K,D*07
$GPGGA,211802.00,3929.028063,N,08719.383228,W,2,04,2.5,164.786,M,-34.248,M,2.0,0135*7A
$GPVTG,0.0,T,,M,0.05,N,0.10,K,D*0C
$GPGGA,211802.10,3929.028050,N,08719.383236,W,2,04,2.5,164.808,M,-34.248,M,2.0,0135*7D
$GPVTG,24.4,T,,M,0.56,N,1.04,K,D*3C
$GPGGA,211802.20,3929.028053,N,08719.383239,W,2,04,2.5,164.814,M,-34.248,M,2.0,0135*7F
$GPVTG,0.0,T,,M,0.19,N,0.34,K,D*07
$GPGGA,211802.30,3929.028061,N,08719.383236,W,2,04,2.5,164.815,M,-34.248,M,2.0,0135*71
$GPVTG,19.2,T,,M,0.32,N,0.59,K,D*3F
$GPGGA,211802.40,3929.028075,N,08719.383236,W,2,04,2.5,164.852,M,-34.248,M,2.0,0135*70
$GPVTG,358.0,T,,M,0.87,N,1.62,K,D*0C
$GPGGA,211802.50,3929.028089,N,08719.383237,W,2,04,2.5,164.872,M,-34.248,M,2.0,0135*71
$GPVTG,357.0,T,,M,0.66,N,1.22,K,D*08
$GPGGA,211802.60,3929.028101,N,08719.383231,W,2,04,2.5,164.847,M,-34.248,M,2.0,0135*73
$GPVTG,20.3,T,,M,0.67,N,1.23,K,D*38
$GPGGA,211802.70,3929.028109,N,08719.383235,W,2,04,2.5,164.832,M,-34.248,M,2.0,0135*7C
$GPVTG,340.0,T,,M,0.44,N,0.82,K,D*05
$GPGGA,211802.80,3929.028110,N,08719.383242,W,2,04,2.5,164.833,M,-34.248,M,2.0,0135*7A
$GPVTG,0.0,T,,M,0.18,N,0.33,K,D*01
$GPGGA,211802.90,3929.028116,N,08719.383236,W,2,04,2.5,164.828,M,-34.248,M,2.0,0135*74
$GPVTG,37.9,T,,M,0.29,N,0.54,K,D*3F
$GPGGA,211803.00,3929.028115,N,08719.383235,W,2,04,2.5,164.825,M,-34.248,M,2.0,0135*71
$GPVTG,0.0,T,,M,0.07,N,0.14,K,D*0A
$GPGGA,211803.10,3929.028088,N,08719.383223,W,2,04,2.5,164.830,M,-34.248,M,3.0,0135*77
$GPVTG,86.2,T,,M,0.54,N,1.00,K,D*34
$GPGGA,211803.20,3929.028079,N,08719.383218,W,2,04,2.5,164.833,M,-34.248,M,3.0,0135*71
$GPVTG,154.6,T,,M,0.36,N,0.66,K,D*0B
$GPGGA,211803.30,3929.028071,N,08719.383211,W,2,04,2.5,164.816,M,-34.248,M,3.0,0135*76
$GPVTG,144.9,T,,M,0.45,N,0.84,K,D*0D
$GPGGA,211803.40,3929.028072,N,08719.383214,W,2,04,2.5,164.828,M,-34.248,M,3.0,0135*7A
$GPVTG,278.5,T,,M,0.24,N,0.45,K,D*07
$GPGGA,211803.50,3929.028085,N,08719.383215,W,2,04,2.5,164.833,M,-34.248,M,3.0,0135*78
$GPVTG,358.1,T,,M,0.51,N,0.94,K,D*0E
$GPGGA,211803.60,3929.028100,N,08719.383218,W,2,04,2.5,164.829,M,-34.248,M,3.0,0135*71
$GPVTG,351.0,T,,M,0.55,N,1.02,K,D*0C
$GPGGA,211803.70,3929.028116,N,08719.383219,W,2,04,2.5,164.811,M,-34.248,M,3.0,0135*7D
$GPVTG,358.1,T,,M,0.68,N,1.25,K,D*0F
$GPGGA,211803.80,3929.028136,N,08719.383201,W,2,04,2.5,164.756,M,-34.248,M,3.0,0135*75
$GPVTG,34.2,T,,M,1.37,N,2.53,K,D*3C
$GPGGA,211803.90,3929.028175,N,08719.383191,W,2,04,2.5,164.782,M,-34.248,M,3.0,0135*70
$GPVTG,11.8,T,,M,1.49,N,2.75,K,D*3C
$GPGGA,211804.00,3929.028197,N,08719.383188,W,2,04,2.5,164.784,M,-34.248,M,3.0,0135*7C
$GPVTG,6.3,T,,M,0.80,N,1.48,K,D*08
$GPGGA,211804.10,3929.028226,N,08719.383161,W,2,04,2.5,164.831,M,-34.248,M,4.0,0135*75
$GPVTG,28.3,T,,M,1.16,N,2.15,K,D*31
$GPGGA,211804.20,3929.028252,N,08719.383157,W,2,04,2.5,164.864,M,-34.248,M,4.0,0135*70
$GPVTG,6.1,T,,M,1.15,N,2.13,K,D*0A
$GPGGA,211804.30,3929.028277,N,08719.383153,W,2,04,2.5,164.848,M,-34.248,M,4.0,0135*7C
$GPVTG,7.6,T,,M,0.96,N,1.77,K,D*07
$GPGGA,211804.40,3929.028309,N,08719.383147,W,2,04,2.5,164.831,M,-34.248,M,4.0,0135*78
$GPVTG,8.4,T,,M,1.20,N,2.21,K,D*06
$GPGGA,211804.50,3929.028329,N,08719.383152,W,2,04,2.5,164.813,M,-34.248,M,4.0,0135*7F
$GPVTG,349.7,T,,M,0.83,N,1.53,K,D*0D
$GPGGA,211804.60,3929.028354,N,08719.383144,W,2,04,2.5,164.801,M,-34.248,M,4.0,0135*72
$GPVTG,13.7,T,,M,0.92,N,1.71,K,D*31
$GPGGA,211804.70,3929.028378,N,08719.383144,W,2,04,2.5,164.795,M,-34.248,M,4.0,0135*7F
$GPVTG,0.4,T,,M,0.90,N,1.66,K,D*04
$GPGGA,211804.80,3929.028402,N,08719.383143,W,2,04,2.5,164.800,M,-34.248,M,4.0,0135*7E
$GPVTG,2.0,T,,M,0.86,N,1.59,K,D*09
$GPGGA,211804.90,3929.028427,N,08719.383133,W,2,04,2.5,164.760,M,-34.248,M,4.0,0135*76
$GPVTG,16.0,T,,M,1.22,N,2.25,K,D*3B
$GPGGA,211805.00,3929.028454,N,08719.383131,W,2,04,2.5,164.750,M,-34.248,M,4.0,0135*7B
$GPVTG,4.2,T,,M,1.01,N,1.86,K,D*01
$GPGGA,211805.10,3929.028503,N,08719.383120,W,2,04,2.5,164.849,M,-34.248,M,5.0,0135*7F
$GPVTG,15.4,T,,M,1.31,N,2.42,K,D*3F
$GPGGA,211805.20,3929.028534,N,08719.383110,W,2,04,2.5,164.885,M,-34.248,M,5.0,0135*7B
$GPVTG,14.6,T,,M,1.34,N,2.48,K,D*33
$GPGGA,211805.30,3929.028565,N,08719.383102,W,2,04,2.5,164.893,M,-34.248,M,5.0,0135*7A
$GPVTG,10.8,T,,M,1.17,N,2.17,K,D*32
$GPGGA,211805.40,3929.028592,N,08719.383102,W,2,04,2.5,164.843,M,-34.248,M,5.0,0135*78
$GPVTG,359.6,T,,M,1.37,N,2.54,K,D*07
$GPGGA,211805.50,3929.028619,N,08719.383099,W,2,04,2.5,164.830,M,-34.248,M,5.0,0135*7E
$GPVTG,5.5,T,,M,1.02,N,1.89,K,D*0B
$GPGGA,211805.60,3929.028647,N,08719.383086,W,2,04,2.5,164.845,M,-34.248,M,5.0,0135*7A
$GPVTG,19.1,T,,M,1.08,N,2.01,K,D*3B
$GPGGA,211805.70,3929.028672,N,08719.383068,W,2,04,2.5,164.846,M,-34.248,M,5.0,0135*7E
$GPVTG,30.3,T,,M,1.04,N,1.93,K,D*36
$GPGGA,211805.80,3929.028694,N,08719.383060,W,2,04,2.5,164.869,M,-34.248,M,5.0,0135*7C
$GPVTG,14.7,T,,M,0.93,N,1.72,K,D*34
$GPGGA,211805.90,3929.028712,N,08719.383055,W,2,04,2.5,164.864,M,-34.248,M,5.0,0135*79
$GPVTG,11.3,T,,M,0.68,N,1.25,K,D*33
$GPGGA,211806.00,3929.028742,N,08719.383033,W,2,04,2.5,164.875,M,-34.248,M,5.0,0135*76
$GPVTG,29.9,T,,M,1.25,N,2.31,K,D*3C
$GPGGA,211806.10,3929.028753,N,08719.383022,W,2,04,2.5,164.855,M,-34.248,M,6.0,0135*76
$GPVTG,24.7,T,,M,1.39,N,2.57,K,D*32
$GPGGA,211806.20,3929.028773,N,08719.383012,W,2,04,2.5,164.850,M,-34.248,M,6.0,0135*71
$GPVTG,22.8,T,,M,0.79,N,1.46,K,D*3D
$GPGGA,211806.30,3929.028797,N,08719.383000,W,2,04,2.5,164.884,M,-34.248,M,6.0,0135*70
$GPVTG,19.7,T,,M,1.13,N,2.10,K,D*37
$GPGGA,211806.40,3929.028818,N,08719.382976,W,2,04,2.5,164.874,M,-34.248,M,6.0,0135*79
$GPVTG,41.3,T,,M,1.04,N,1.93,K,D*30
$GPGGA,211806.50,3929.028823,N,08719.382961,W,2,04,2.5,164.778,M,-34.248,M,6.0,0135*75
$GPVTG,68.9,T,,M,1.92,N,3.56,K,D*35
$GPGGA,211806.60,3929.028845,N,08719.382939,W,2,04,2.5,164.778,M,-34.248,M,6.0,0135*7B
$GPVTG,36.4,T,,M,1.01,N,1.87,K,D*37
$GPGGA,211806.70,3929.028864,N,08719.382945,W,2,04,2.5,164.811,M,-34.248,M,6.0,0135*72
$GPVTG,347.6,T,,M,0.93,N,1.72,K,D*00
$GPGGA,211806.80,3929.028883,N,08719.382923,W,2,04,2.5,164.845,M,-34.248,M,6.0,0135*75
$GPVTG,42.4,T,,M,1.14,N,2.11,K,D*3C
$GPGGA,211806.90,3929.028894,N,08719.382913,W,2,04,2.5,164.920,M,-34.248,M,6.0,0135*73
$GPVTG,33.1,T,,M,1.54,N,2.85,K,D*36
$GPGGA,211807.00,3929.028912,N,08719.382894,W,2,04,2.5,164.914,M,-34.248,M,6.0,0135*7D
$GPVTG,39.6,T,,M,0.84,N,1.56,K,D*3A
$GPGGA,211807.10,3929.028867,N,08719.382903,W,2,04,2.5,164.823,M,-34.248,M,2.0,0135*71
$GPVTG,75.5,T,,M,2.04,N,3.77,K,D*3A
$GPGGA,211807.20,3929.028872,N,08719.382884,W,2,04,2.5,164.795,M,-34.248,M,2.0,0135*7A
$GPVTG,72.6,T,,M,0.76,N,1.41,K,D*3E
$GPGGA,211807.30,3929.028883,N,08719.382856,W,2,04,2.5,164.838,M,-34.248,M,2.0,0135*72
$GPVTG,62.3,T,,M,1.21,N,2.25,K,D*38
$GPGGA,211807.40,3929.028883,N,08719.382848,W,2,04,2.5,164.912,M,-34.248,M,2.0,0135*73
$GPVTG,87.8,T,,M,1.47,N,2.72,K,D*3A
$GPGGA,211807.50,3929.028887,N,08719.382846,W,2,04,2.5,164.920,M,-34.248,M,2.0,0135*79
$GPVTG,20.9,T,,M,0.20,N,0.37,K,D*35
$GPGGA,211807.60,3929.028896,N,08719.382832,W,2,04,2.5,164.914,M,-34.248,M,2.0,0135*7E
$GPVTG,51.2,T,,M,0.52,N,0.96,K,D*36
$GPGGA,211807.70,3929.028913,N,08719.382788,W,2,04,2.5,164.921,M,-34.248,M,2.0,0135*7B
$GPVTG,63.2,T,,M,1.38,N,2.56,K,D*34
$GPGGA,211807.80,3929.028912,N,08719.382751,W,2,04,2.5,164.810,M,-34.248,M,2.0,0135*72
$GPVTG,92.6,T,,M,2.38,N,4.42,K,D*3E
$GPGGA,211807.90,3929.028909,N,08719.382747,W,2,04,2.5,164.866,M,-34.248,M,2.0,0135*7F
$GPVTG,133.2,T,,M,1.10,N,2.03,K,D*0A
$GPGGA,211808.00,3929.028915,N,08719.382712,W,2,04,2.5,164.928,M,-34.248,M,2.0,0135*7F
$GPVTG,76.9,T,,M,1.57,N,2.90,K,D*38
$GPGGA,211808.10,3929.028925,N,08719.382657,W,2,04,2.5,164.916,M,-34.248,M,2.0,0135*70
$GPVTG,83.0,T,,M,0.90,N,1.67,K,D*3A
$GPGGA,211808.20,3929.028916,N,08719.382652,W,2,04,2.5,164.913,M,-34.248,M,2.0,0135*73
$GPVTG,160.1,T,,M,0.36,N,0.67,K,D*0A
$GPGGA,211808.30,3929.028906,N,08719.382642,W,2,04,2.5,164.883,M,-34.248,M,2.0,0135*7A
$GPVTG,141.7,T,,M,0.75,N,1.39,K,D*02
$GPGGA,211808.40,3929.028893,N,08719.382616,W,2,04,2.5,164.872,M,-34.248,M,2.0,0135*7F
$GPVTG,122.3,T,,M,0.87,N,1.62,K,D*00
$GPGGA,211808.50,3929.028885,N,08719.382593,W,2,04,2.5,164.825,M,-34.248,M,2.0,0135*75
$GPVTG,113.2,T,,M,1.17,N,2.16,K,D*0B
$GPGGA,211808.60,3929.028883,N,08719.382574,W,2,04,2.5,164.829,M,-34.248,M,2.0,0135*75
$GPVTG,99.3,T,,M,0.55,N,1.01,K,D*3B
$GPGGA,211808.70,3929.028878,N,08719.382556,W,2,04,2.5,164.844,M,-34.248,M,2.0,0135*7B
$GPVTG,108.2,T,,M,0.60,N,1.12,K,D*07
$GPGGA,211808.80,3929.028871,N,08719.382545,W,2,04,2.5,164.883,M,-34.248,M,2.0,0135*74
$GPVTG,134.3,T,,M,0.85,N,1.57,K,D*03
$GPGGA,211808.90,3929.028861,N,08719.382540,W,2,04,2.5,164.901,M,-34.248,M,2.0,0135*7A
$GPVTG,155.7,T,,M,0.52,N,0.96,K,D*06
$GPGGA,211809.00,3929.028850,N,08719.382533,W,2,04,2.5,164.898,M,-34.248,M,2.0,0135*75
$GPVTG,156.9,T,,M,0.45,N,0.83,K,D*09
$GPGGA,211809.10,3929.028863,N,08719.382517,W,2,04,2.5,164.864,M,-34.248,M,3.0,0135*70
$GPVTG,145.9,T,,M,0.54,N,0.99,K,D*00
$GPGGA,211809.20,3929.028850,N,08719.382493,W,2,04,2.5,164.939,M,-34.248,M,3.0,0135*77
$GPVTG,123.8,T,,M,1.65,N,3.05,K,D*04
$GPGGA,211809.30,3929.028841,N,08719.382476,W,2,04,2.5,164.881,M,-34.248,M,3.0,0135*7F
$GPVTG,125.8,T,,M,1.27,N,2.35,K,D*06
$GPGGA,211809.40,3929.028830,N,08719.382472,W,2,04,2.5,164.861,M,-34.248,M,3.0,0135*74
$GPVTG,163.6,T,,M,0.56,N,1.04,K,D*0C
$GPGGA,211809.50,3929.028822,N,08719.382448,W,2,04,2.5,164.875,M,-34.248,M,3.0,0135*7A
$GPVTG,113.0,T,,M,0.76,N,1.40,K,D*0F
$GPGGA,211809.60,3929.028801,N,08719.382444,W,2,04,2.5,164.914,M,-34.248,M,3.0,0135*72
$GPVTG,171.0,T,,M,1.06,N,1.97,K,D*07
$GPGGA,211809.70,3929.028793,N,08719.382407,W,2,04,2.5,164.854,M,-34.248,M,3.0,0135*75
$GPVTG,105.7,T,,M,1.58,N,2.92,K,D*0E
$GPGGA,211809.80,3929.028773,N,08719.382408,W,2,04,2.5,164.782,M,-34.248,M,3.0,0135*7F
$GPVTG,182.2,T,,M,1.58,N,2.93,K,D*05
$GPGGA,211809.90,3929.028764,N,08719.382393,W,2,04,2.5,164.755,M,-34.248,M,3.0,0135*77
$GPVTG,127.6,T,,M,0.75,N,1.39,K,D*03
$GPGGA,211810.00,3929.028747,N,08719.382382,W,2,04,2.5,164.763,M,-34.248,M,3.0,0135*72
$GPVTG,153.6,T,,M,0.69,N,1.28,K,D*0D
$GPGGA,211810.10,3929.028790,N,08719.382407,W,2,04,2.5,165.037,M,-34.248,M,4.0,0135*73
$GPVTG,196.5,T,,M,0.84,N,1.56,K,D*0D
$GPGGA,211810.10,3929.028816,N,08719.382424,W,0,03,54.8,165.441,M,-34.248,M,,0000*60
$GPVTG,153.6,T,,M,0.69,N,1.28,K,N*07
$GPGGA,211810.10,3929.028816,N,08719.382424,W,0,03,54.9,165.441,M,-34.248,M,,0000*61
$GPVTG,153.6,T,,M,0.69,N,1.28,K,N*07
$GPGGA,211810.10,3929.028816,N,08719.382424,W,0,03,55.1,165.441,M,-34.248,M,,0000*68
$GPVTG,153.6,T,,M,0.69,N,1.28,K,N*07
$GPGGA,211810.10,3929.028816,N,08719.382424,W,0,03,55.3,165.441,M,-34.248,M,,0000*6A
$GPVTG,153.6,T,,M,0.69,N,1.28,K,N*07
$GPGGA,211810.10,3929.028816,N,08719.382424,W,0,03,55.5,165.441,M,-34.248,M,,0000*6C
$GPVTG,153.6,T,,M,0.69,N,1.28,K,N*07
$GPGGA,211810.10,3929.028816,N,08719.382424,W,0,03,55.7,165.441,M,-34.248,M,,0000*6E
$GPVTG,153.6,T,,M,0.69,N,1.28,K,N*07
$GPGGA,211810.10,3929.028816,N,08719.382424,W,0,03,55.9,165.441,M,-34.248,M,,0000*60
$GPVTG,153.6,T,,M,0.69,N,1.28,K,N*07
$GPGGA,211810.10,3929.026738,N,08719.383969,W,0,04,2.5,164.974,M,-34.248,M,,0000*5B
$GPVTG,0.0,T,,M,0.00,N,0.00,K,N*02
$GPGGA,211818.10,3929.026721,N,08719.383967,W,2,04,2.5,164.998,M,-34.248,M,6.0,0135*7A
$GPVTG,175.4,T,,M,0.78,N,1.44,K,D*01
$GPGGA,211818.20,3929.026699,N,08719.383963,W,2,04,2.5,164.981,M,-34.248,M,6.0,0135*77
$GPVTG,170.8,T,,M,0.88,N,1.62,K,D*03
$GPGGA,211818.30,3929.026663,N,08719.383967,W,2,04,2.5,164.960,M,-34.248,M,6.0,0135*78
$GPVTG,185.0,T,,M,1.34,N,2.48,K,D*0C
$GPGGA,211818.30,3929.026738,N,08719.383969,W,0,03,56.3,164.974,M,-34.248,M,,0000*61
$GPVTG,0.0,T,,M,0.00,N,0.00,K,N*02
$GPGGA,211818.30,3929.026738,N,08719.383969,W,0,03,56.5,164.974,M,-34.248,M,,0000*67
$GPVTG,0.0,T,,M,0.00,N,0.00,K,N*02
$GPGGA,211818.30,3929.026738,N,08719.383969,W,0,03,56.7,164.974,M,-34.248,M,,0000*65
$GPVTG,0.0,T,,M,0.00,N,0.00,K,N*02
$GPGGA,211818.30,3929.026738,N,08719.383969,W,0,00,56.7,164.974,M,-34.248,M,,0000*66
$GPVTG,0.0,T,,M,0.00,N,0.00,K,N*02
$GPGGA,211818.30,3929.026738,N,08719.383969,W,0,00,56.7,164.974,M,-34.248,M,,0000*66
$GPVTG,0.0,T,,M,0.00,N,0.00,K,N*02
$GPGGA,211818.30,3929.024587,N,08719.386060,W,0,00,56.7,178.956,M,-34.248,M,,0000*6A
$GPVTG,0.0,T,,M,0.00,N,0.00,K,N*02
$GPGGA,211818.30,3929.024470,N,08719.384489,W,0,04,2.5,169.575,M,-34.248,M,,0000*58
$GPVTG,0.0,T,,M,0.00,N,0.00,K,N*02
$GPGGA,211825.10,3929.024419,N,08719.384481,W,2,04,2.5,169.572,M,-34.248,M,2.0,0138*70
$GPVTG,173.1,T,,M,1.87,N,3.46,K,D*03
$GPGGA,211825.20,3929.024374,N,08719.384475,W,2,04,2.5,169.587,M,-34.248,M,2.0,0138*7E
$GPVTG,174.4,T,,M,1.64,N,3.04,K,D*0A
$GPGGA,211825.30,3929.024323,N,08719.384454,W,2,04,2.5,169.624,M,-34.248,M,2.0,0138*74
$GPVTG,162.0,T,,M,2.06,N,3.81,K,D*03
$GPGGA,211825.40,3929.024279,N,08719.384441,W,2,04,2.5,169.594,M,-34.248,M,2.0,0138*71
$GPVTG,167.2,T,,M,1.74,N,3.22,K,D*0B
$GPGGA,211825.50,3929.024235,N,08719.384434,W,2,04,2.5,169.587,M,-34.248,M,2.0,0138*78
$GPVTG,172.7,T,,M,1.61,N,2.99,K,D*0F
$GPGGA,211825.60,3929.024175,N,08719.384435,W,2,04,2.5,169.621,M,-34.248,M,2.0,0138*72
$GPVTG,181.4,T,,M,2.27,N,4.20,K,D*05
$GPGGA,211825.70,3929.024128,N,08719.384422,W,2,04,2.5,169.573,M,-34.248,M,2.0,0138*79
$GPVTG,167.8,T,,M,1.96,N,3.62,K,D*09
$GPGGA,211825.80,3929.024083,N,08719.384401,W,2,04,2.5,169.625,M,-34.248,M,2.0,0138*77
$GPVTG,159.9,T,,M,2.00,N,3.71,K,D*0B
$GPGGA,211825.90,3929.024025,N,08719.384387,W,2,04,2.5,169.602,M,-34.248,M,2.0,0138*76
$GPVTG,169.2,T,,M,2.16,N,4.00,K,D*05
$GPGGA,211826.00,3929.023971,N,08719.384374,W,2,04,2.5,169.613,M,-34.248,M,2.0,0138*7F
$GPVTG,169.2,T,,M,1.97,N,3.65,K,D*0B
$GPGGA,211826.10,3929.023581,N,08719.384341,W,2,04,2.5,167.752,M,-34.248,M,2.0,0138*71
$GPVTG,168.7,T,,M,1.99,N,3.69,K,D*0D
$GPGGA,211826.20,3929.023540,N,08719.384318,W,2,04,2.5,167.761,M,-34.248,M,2.0,0138*73
$GPVTG,156.6,T,,M,1.60,N,2.97,K,D*07
$GPGGA,211826.30,3929.023483,N,08719.384316,W,2,04,2.5,167.814,M,-34.248,M,2.0,0138*7F
$GPVTG,177.8,T,,M,2.30,N,4.26,K,D*00
$GPGGA,211826.40,3929.023427,N,08719.384308,W,2,04,2.5,167.800,M,-34.248,M,2.0,0138*7C
$GPVTG,173.8,T,,M,2.05,N,3.79,K,D*0F
$GPGGA,211826.50,3929.023375,N,08719.384294,W,2,04,2.5,167.820,M,-34.248,M,2.0,0138*7B
$GPVTG,168.9,T,,M,1.95,N,3.61,K,D*07
$GPGGA,211826.60,3929.023335,N,08719.384268,W,2,04,2.5,167.813,M,-34.248,M,2.0,0138*7F
$GPVTG,153.2,T,,M,1.61,N,2.98,K,D*08
$GPGGA,211826.70,3929.023276,N,08719.384259,W,2,04,2.5,167.781,M,-34.248,M,2.0,0138*7E
$GPVTG,173.3,T,,M,2.23,N,4.12,K,D*0A
$GPGGA,211826.80,3929.023226,N,08719.384254,W,2,04,2.5,167.782,M,-34.248,M,2.0,0138*7A
$GPVTG,175.4,T,,M,1.82,N,3.37,K,D*03
$GPGGA,211826.90,3929.023183,N,08719.384245,W,2,04,2.5,167.817,M,-34.248,M,2.0,0138*74
$GPVTG,170.9,T,,M,1.70,N,3.15,K,D*06
$GPGGA,211827.00,3929.023130,N,08719.384236,W,2,04,2.5,167.827,M,-34.248,M,2.0,0138*73
$GPVTG,172.3,T,,M,1.91,N,3.54,K,D*04
$GPGGA,211827.10,3929.022953,N,08719.384105,W,2,04,2.5,167.648,M,-34.248,M,3.0,0138*7B
$GPVTG,165.9,T,,M,2.05,N,3.80,K,D*0F
$GPGGA,211827.20,3929.022904,N,08719.384087,W,2,04,2.5,167.638,M,-34.248,M,3.0,0138*76
$GPVTG,163.6,T,,M,1.85,N,3.42,K,D*03
$GPGGA,211827.30,3929.022850,N,08719.384081,W,2,04,2.5,167.647,M,-34.248,M,3.0,0138*79
$GPVTG,175.4,T,,M,1.93,N,3.58,K,D*0A
$GPGGA,211827.40,3929.022797,N,08719.384066,W,2,04,2.5,167.592,M,-34.248,M,3.0,0138*78
$GPVTG,167.5,T,,M,2.24,N,4.15,K,D*09
$GPGGA,211827.50,3929.022739,N,08719.384060,W,2,04,2.5,167.680,M,-34.248,M,3.0,0138*7B
$GPVTG,175.3,T,,M,2.71,N,5.02,K,D*0B
$GPGGA,211827.60,3929.022693,N,08719.384038,W,2,04,2.5,167.622,M,-34.248,M,3.0,0138*7C
$GPVTG,159.7,T,,M,2.10,N,3.89,K,D*03
$GPGGA,211827.70,3929.022640,N,08719.384020,W,2,04,2.5,167.649,M,-34.248,M,3.0,0138*77
$GPVTG,165.5,T,,M,2.05,N,3.79,K,D*05
$GPGGA,211827.80,3929.022588,N,08719.384011,W,2,04,2.5,167.615,M,-34.248,M,3.0,0138*74
$GPVTG,172.0,T,,M,1.99,N,3.69,K,D*01
$GPGGA,211827.90,3929.022534,N,08719.383986,W,2,04,2.5,167.640,M,-34.248,M,3.0,0138*72
$GPVTG,160.7,T,,M,2.13,N,3.95,K,D*07
$GPGGA,211828.00,3929.022476,N,08719.383972,W,2,04,2.5,167.584,M,-34.248,M,3.0,0138*73
$GPVTG,169.2,T,,M,2.37,N,4.39,K,D*0C
$GPGGA,211828.10,3929.022337,N,08719.383889,W,2,04,2.5,166.892,M,-34.248,M,4.0,0138*79
$GPVTG,171.0,T,,M,2.00,N,3.71,K,D*08
$GPGGA,211828.20,3929.022283,N,08719.383871,W,2,04,2.5,166.921,M,-34.248,M,4.0,0138*7A
$GPVTG,165.7,T,,M,2.06,N,3.82,K,D*00
$GPGGA,211828.30,3929.022234,N,08719.383847,W,2,04,2.5,166.879,M,-34.248,M,4.0,0138*7E
$GPVTG,159.0,T,,M,2.06,N,3.81,K,D*0B
$GPGGA,211828.40,3929.022183,N,08719.383835,W,2,04,2.5,166.937,M,-34.248,M,4.0,0135*75
$GPVTG,170.2,T,,M,2.18,N,4.04,K,D*07
$GPGGA,211828.50,3929.022123,N,08719.383823,W,2,04,2.5,166.917,M,-34.248,M,4.0,0135*7B
$GPVTG,171.1,T,,M,2.24,N,4.14,K,D*0B
$GPGGA,211828.60,3929.022072,N,08719.383797,W,2,04,2.5,166.923,M,-34.248,M,4.0,0135*7A
$GPVTG,158.3,T,,M,1.95,N,3.62,K,D*0D
$GPGGA,211828.70,3929.022016,N,08719.383791,W,2,04,2.5,166.940,M,-34.248,M,4.0,0135*7A
$GPVTG,175.1,T,,M,2.08,N,3.84,K,D*0F
$GPGGA,211828.80,3929.021961,N,08719.383780,W,2,04,2.5,166.949,M,-34.248,M,4.0,0135*76
$GPVTG,171.4,T,,M,1.99,N,3.68,K,D*07
$GPGGA,211828.90,3929.021908,N,08719.383759,W,2,04,2.5,166.939,M,-34.248,M,4.0,0135*7B
$GPVTG,163.2,T,,M,2.02,N,3.74,K,D*0E
$GPGGA,211829.00,3929.021852,N,08719.383753,W,2,04,2.5,166.969,M,-34.248,M,4.0,0135*72
$GPVTG,174.8,T,,M,2.10,N,3.89,K,D*03
$GPGGA,211829.10,3929.021812,N,08719.383579,W,2,04,2.5,167.254,M,-34.248,M,5.0,0135*78
$GPVTG,169.9,T,,M,1.90,N,3.53,K,D*02
$GPGGA,211829.20,3929.021751,N,08719.383571,W,2,04,2.5,167.306,M,-34.248,M,5.0,0135*7D
$GPVTG,174.6,T,,M,2.43,N,4.51,K,D*09
$GPGGA,211829.30,3929.021694,N,08719.383555,W,2,04,2.5,167.289,M,-34.248,M,5.0,0135*74
$GPVTG,167.6,T,,M,2.11,N,3.91,K,D*07
$GPGGA,211829.40,3929.021641,N,08719.383547,W,2,04,2.5,167.346,M,-34.248,M,5.0,0138*77
$GPVTG,172.7,T,,M,2.21,N,4.09,K,D*07
$GPGGA,211829.50,3929.021586,N,08719.383531,W,2,04,2.5,167.314,M,-34.248,M,5.0,0138*78
$GPVTG,167.9,T,,M,2.14,N,3.96,K,D*0A
$GPGGA,211829.60,3929.021529,N,08719.383532,W,2,04,2.5,167.304,M,-34.248,M,5.0,0138*7C
$GPVTG,180.9,T,,M,2.05,N,3.80,K,D*04
$GPGGA,211829.70,3929.021473,N,08719.383512,W,2,04,2.5,167.353,M,-34.248,M,5.0,0138*73
$GPVTG,164.3,T,,M,2.30,N,4.25,K,D*0A
$GPGGA,211829.80,3929.021421,N,08719.383487,W,2,04,2.5,167.320,M,-34.248,M,5.0,0138*72
$GPVTG,159.6,T,,M,2.09,N,3.88,K,D*0B
$GPGGA,211829.90,3929.021369,N,08719.383478,W,2,04,2.5,167.296,M,-34.248,M,5.0,0138*74
$GPVTG,172.0,T,,M,1.96,N,3.62,K,D*05
$GPGGA,211830.00,3929.021304,N,08719.383470,W,2,04,2.5,167.217,M,-34.248,M,5.0,0138*7F
$GPVTG,174.9,T,,M,2.81,N,5.20,K,D*0F
$GPGGA,211830.10,3929.021291,N,08719.383439,W,2,04,2.5,167.374,M,-34.248,M,6.0,0138*79
$GPVTG,168.1,T,,M,2.39,N,4.43,K,D*0D
$GPGGA,211830.20,3929.021240,N,08719.383420,W,2,04,2.5,167.322,M,-34.248,M,6.0,0138*7D
$GPVTG,163.9,T,,M,2.16,N,4.00,K,D*04
$GPGGA,211830.30,3929.021186,N,08719.383409,W,2,04,2.5,167.383,M,-34.248,M,6.0,0138*75
$GPVTG,171.0,T,,M,2.29,N,4.25,K,D*05
$GPGGA,211830.40,3929.021125,N,08719.383398,W,2,04,2.5,167.352,M,-34.248,M,6.0,0138*78
$GPVTG,172.1,T,,M,2.29,N,4.25,K,D*07
$GPGGA,211830.50,3929.021072,N,08719.383384,W,2,04,2.5,167.331,M,-34.248,M,6.0,0138*72
$GPVTG,168.4,T,,M,2.01,N,3.72,K,D*06
$GPGGA,211830.60,3929.021015,N,08719.383371,W,2,04,2.5,167.339,M,-34.248,M,6.0,0138*72
$GPVTG,169.4,T,,M,2.08,N,3.85,K,D*06
$GPGGA,211830.70,3929.020956,N,08719.383360,W,2,04,2.5,167.351,M,-34.248,M,6.0,0138*72
$GPVTG,171.9,T,,M,2.17,N,4.01,K,D*07
$GPGGA,211830.80,3929.020897,N,08719.383342,W,2,04,2.5,167.320,M,-34.248,M,6.0,0138*77
$GPVTG,166.7,T,,M,2.25,N,4.17,K,D*09
$GPGGA,211830.90,3929.020846,N,08719.383316,W,2,04,2.5,167.336,M,-34.248,M,6.0,0138*7C
$GPVTG,158.7,T,,M,2.01,N,3.73,K,D*07
$GPGGA,211831.00,3929.020788,N,08719.383311,W,2,04,2.5,167.327,M,-34.248,M,6.0,0138*7E
$GPVTG,176.0,T,,M,2.10,N,3.88,K,D*08
$GPGGA,211831.10,3929.020669,N,08719.383221,W,2,04,2.5,167.187,M,-34.248,M,2.0,0138*7F
$GPVTG,163.6,T,,M,1.94,N,3.59,K,D*09
$GPGGA,211831.20,3929.020612,N,08719.383206,W,2,04,2.5,167.208,M,-34.248,M,2.0,0138*71
$GPVTG,168.7,T,,M,2.12,N,3.92,K,D*09
$GPGGA,211831.30,3929.020557,N,08719.383195,W,2,04,2.5,167.198,M,-34.248,M,2.0,0138*71
$GPVTG,171.3,T,,M,2.04,N,3.78,K,D*06
$GPGGA,211831.40,3929.020499,N,08719.383178,W,2,04,2.5,167.198,M,-34.248,M,2.0,0138*76
$GPVTG,167.1,T,,M,2.14,N,3.95,K,D*01
$GPGGA,211831.50,3929.020440,N,08719.383158,W,2,04,2.5,167.192,M,-34.248,M,2.0,0138*7B
$GPVTG,165.3,T,,M,2.18,N,4.03,K,D*05
$GPGGA,211831.60,3929.020380,N,08719.383144,W,2,04,2.5,167.206,M,-34.248,M,2.0,0138*70
$GPVTG,169.6,T,,M,2.21,N,4.09,K,D*0C
$GPGGA,211831.70,3929.020324,N,08719.383129,W,2,04,2.5,167.199,M,-34.248,M,2.0,0138*71
$GPVTG,168.4,T,,M,2.07,N,3.83,K,D*0E
$GPGGA,211831.80,3929.020265,N,08719.383113,W,2,04,2.5,167.190,M,-34.248,M,2.0,0138*7A
$GPVTG,168.0,T,,M,2.19,N,4.06,K,D*0F
$GPGGA,211831.90,3929.020199,N,08719.383107,W,2,04,2.5,167.195,M,-34.248,M,2.0,0138*7B
$GPVTG,176.0,T,,M,2.36,N,4.38,K,D*00
$GPGGA,211832.00,3929.020143,N,08719.383093,W,2,04,2.5,167.180,M,-34.248,M,2.0,0138*7E
$GPVTG,169.4,T,,M,2.08,N,3.86,K,D*05
$GPGGA,211832.10,3929.020194,N,08719.383008,W,2,04,2.5,167.511,M,-34.248,M,2.0,0138*7B
$GPVTG,170.5,T,,M,2.41,N,4.47,K,D*0B
$GPGGA,211832.20,3929.020137,N,08719.383000,W,2,04,2.5,167.436,M,-34.248,M,2.0,0138*7D
$GPVTG,174.0,T,,M,2.52,N,4.66,K,D*0B
$GPGGA,211832.30,3929.020074,N,08719.382992,W,2,04,2.5,167.429,M,-34.248,M,2.0,0138*77
$GPVTG,174.8,T,,M,2.28,N,4.22,K,D*0E
$GPGGA,211832.40,3929.020023,N,08719.382980,W,2,04,2.5,167.490,M,-34.248,M,2.0,0138*73
$GPVTG,169.2,T,,M,2.22,N,4.12,K,D*01
$GPGGA,211832.50,3929.019965,N,08719.382969,W,2,04,2.5,167.470,M,-34.248,M,2.0,0138*7A
$GPVTG,172.1,T,,M,2.14,N,3.96,K,D*06
$GPGGA,211832.60,3929.019901,N,08719.382966,W,2,04,2.5,167.515,M,-34.248,M,2.0,0138*76
$GPVTG,177.7,T,,M,2.46,N,4.55,K,D*0A
$GPGGA,211832.70,3929.019833,N,08719.382960,W,2,04,2.5,167.498,M,-34.248,M,2.0,0138*75
$GPVTG,175.7,T,,M,2.46,N,4.56,K,D*0B
$GPGGA,211832.80,3929.019779,N,08719.382950,W,2,04,2.5,167.509,M,-34.248,M,2.0,0138*71
$GPVTG,172.0,T,,M,2.00,N,3.71,K,D*0B
$GPGGA,211832.90,3929.019718,N,08719.382932,W,2,04,2.5,167.491,M,-34.248,M,2.0,0138*73
$GPVTG,167.4,T,,M,2.27,N,4.20,K,D*0D
$GPGGA,211833.00,3929.019657,N,08719.382922,W,2,04,2.5,167.486,M,-34.248,M,2.0,0138*76
$GPVTG,172.6,T,,M,2.20,N,4.07,K,D*09
$GPGGA,211833.10,3929.019540,N,08719.382877,W,2,04,2.5,167.400,M,-34.248,M,3.0,0138*7C
$GPVTG,169.9,T,,M,2.07,N,3.83,K,D*02
$GPGGA,211833.20,3929.019480,N,08719.382864,W,2,04,2.5,167.367,M,-34.248,M,3.0,0138*76
$GPVTG,170.6,T,,M,2.26,N,4.18,K,D*03
$GPGGA,211833.30,3929.019422,N,08719.382867,W,2,04,2.5,167.329,M,-34.248,M,3.0,0138*76
$GPVTG,182.2,T,,M,2.23,N,4.13,K,D*04
$GPGGA,211833.40,3929.019367,N,08719.382862,W,2,04,2.5,167.373,M,-34.248,M,3.0,0138*7D
$GPVTG,176.2,T,,M,2.14,N,3.96,K,D*01
$GPGGA,211833.50,3929.019309,N,08719.382854,W,2,04,2.5,167.361,M,-34.248,M,3.0,0138*72
$GPVTG,174.0,T,,M,2.13,N,3.94,K,D*04
$GPGGA,211833.60,3929.019250,N,08719.382839,W,2,04,2.5,167.364,M,-34.248,M,3.0,0138*72
$GPVTG,168.5,T,,M,2.17,N,4.02,K,D*00
$GPGGA,211833.70,3929.019197,N,08719.382826,W,2,04,2.5,167.369,M,-34.248,M,3.0,0138*78
$GPVTG,169.1,T,,M,1.93,N,3.57,K,D*0D
$GPGGA,211833.80,3929.019140,N,08719.382815,W,2,04,2.5,167.381,M,-34.248,M,3.0,0138*7B
$GPVTG,171.6,T,,M,2.09,N,3.87,K,D*0E
$GPGGA,211833.90,3929.019080,N,08719.382801,W,2,04,2.5,167.404,M,-34.248,M,3.0,0138*78
$GPVTG,169.7,T,,M,2.24,N,4.14,K,D*04
$GPGGA,211834.00,3929.019027,N,08719.382788,W,2,04,2.5,167.411,M,-34.248,M,3.0,0138*71
$GPVTG,169.3,T,,M,1.94,N,3.59,K,D*06
$GPGGA,211834.10,3929.018979,N,08719.382736,W,2,04,2.5,167.284,M,-34.248,M,4.0,0138*7B
$GPVTG,168.9,T,,M,1.98,N,3.68,K,D*03
$GPGGA,211834.20,3929.018916,N,08719.382721,W,2,04,2.5,167.266,M,-34.248,M,4.0,0138*7B
$GPVTG,169.7,T,,M,2.33,N,4.32,K,D*06
$GPGGA,211834.30,3929.018864,N,08719.382706,W,2,04,2.5,167.286,M,-34.248,M,4.0,0138*75
$GPVTG,166.7,T,,M,1.95,N,3.61,K,D*07
$GPGGA,211834.40,3929.018813,N,08719.382687,W,2,04,2.5,167.274,M,-34.248,M,4.0,0138*77
$GPVTG,164.3,T,,M,1.92,N,3.55,K,D*01
$GPGGA,211834.50,3929.018758,N,08719.382674,W,2,04,2.5,167.244,M,-34.248,M,4.0,0138*79
$GPVTG,169.3,T,,M,2.11,N,3.90,K,D*0D
$GPGGA,211834.60,3929.018704,N,08719.382653,W,2,04,2.5,167.270,M,-34.248,M,4.0,0138*71
$GPVTG,163.8,T,,M,2.09,N,3.87,K,D*03
$GPGGA,211834.70,3929.018644,N,08719.382635,W,2,04,2.5,167.269,M,-34.248,M,4.0,0138*7D
$GPVTG,166.5,T,,M,2.21,N,4.10,K,D*08
$GPGGA,211834.80,3929.018587,N,08719.382622,W,2,04,2.5,167.247,M,-34.248,M,4.0,0138*74
$GPVTG,170.1,T,,M,2.13,N,3.94,K,D*01
$GPGGA,211834.90,3929.018532,N,08719.382600,W,2,04,2.5,167.248,M,-34.248,M,4.0,0138*74
$GPVTG,163.0,T,,M,2.07,N,3.83,K,D*01
$GPGGA,211835.00,3929.018474,N,08719.382574,W,2,04,2.5,167.211,M,-34.248,M,4.0,0138*73
$GPVTG,161.0,T,,M,2.31,N,4.29,K,D*01
$GPGGA,211835.10,3929.018396,N,08719.382521,W,2,04,2.4,167.330,M,-34.248,M,5.0,0138*7B
$GPVTG,166.8,T,,M,2.07,N,3.84,K,D*0B
$GPGGA,211835.20,3929.018337,N,08719.382513,W,2,04,2.4,167.326,M,-34.248,M,5.0,0138*75
$GPVTG,173.8,T,,M,2.11,N,3.92,K,D*0F
$GPGGA,211835.30,3929.018282,N,08719.382499,W,2,04,2.4,167.320,M,-34.248,M,5.0,0138*7E
$GPVTG,168.9,T,,M,2.03,N,3.76,K,D*0D
$GPGGA,211835.40,3929.018227,N,08719.382469,W,2,04,2.4,167.316,M,-34.248,M,5.0,0138*7C
$GPVTG,156.7,T,,M,2.15,N,3.97,K,D*06
$GPGGA,211835.50,3929.018168,N,08719.382449,W,2,04,2.4,167.311,M,-34.248,M,5.0,0138*70
$GPVTG,165.4,T,,M,2.20,N,4.07,K,D*0D
$GPGGA,211835.60,3929.018113,N,08719.382428,W,2,04,2.4,167.285,M,-34.248,M,5.0,0138*74
$GPVTG,163.4,T,,M,2.13,N,3.95,K,D*07
$GPGGA,211835.70,3929.018062,N,08719.382418,W,2,04,2.4,167.320,M,-34.248,M,5.0,0138*7F
$GPVTG,171.9,T,,M,1.97,N,3.65,K,D*09
$GPGGA,211835.80,3929.018002,N,08719.382400,W,2,04,2.4,167.325,M,-34.248,M,5.0,0138*7A
$GPVTG,166.9,T,,M,2.23,N,4.13,K,D*05
$GPGGA,211835.90,3929.017944,N,08719.382391,W,2,04,2.4,167.296,M,-34.248,M,5.0,0138*79
$GPVTG,172.7,T,,M,2.17,N,4.01,K,D*0A
$GPGGA,211836.00,3929.017893,N,08719.382369,W,2,04,2.4,167.315,M,-34.248,M,5.0,0138*75
$GPVTG,161.9,T,,M,1.98,N,3.67,K,D*05
$GPGGA,211836.10,3929.017813,N,08719.382339,W,2,04,2.4,167.310,M,-34.248,M,6.0,0138*7F
$GPVTG,170.1,T,,M,2.37,N,4.39,K,D*07
$GPGGA,211836.20,3929.017755,N,08719.382329,W,2,04,2.4,167.316,M,-34.248,M,6.0,0138*76
$GPVTG,172.5,T,,M,2.10,N,3.90,K,D*00
$GPGGA,211836.30,3929.017699,N,08719.382311,W,2,04,2.4,167.291,M,-34.248,M,6.0,0138*73
$GPVTG,166.0,T,,M,2.14,N,3.97,K,D*03
$GPGGA,211836.40,3929.017646,N,08719.382299,W,2,04,2.4,167.308,M,-34.248,M,6.0,0138*76
$GPVTG,169.7,T,,M,1.98,N,3.66,K,D*02
$GPGGA,211836.50,3929.017591,N,08719.382280,W,2,04,2.4,167.321,M,-34.248,M,6.0,0138*7D
$GPVTG,165.6,T,,M,2.06,N,3.81,K,D*02
$GPGGA,211836.60,3929.017532,N,08719.382268,W,2,04,2.4,167.301,M,-34.248,M,6.0,0138*73
$GPVTG,171.0,T,,M,2.18,N,4.04,K,D*04
$GPGGA,211836.70,3929.017477,N,08719.382254,W,2,04,2.4,167.318,M,-34.248,M,6.0,0138*75
$GPVTG,168.9,T,,M,2.05,N,3.80,K,D*02
$GPGGA,211836.80,3929.017419,N,08719.382240,W,2,04,2.4,167.316,M,-34.248,M,6.0,0138*79
$GPVTG,169.1,T,,M,2.14,N,3.96,K,D*0C
$GPGGA,211836.90,3929.017363,N,08719.382223,W,2,04,2.4,167.307,M,-34.248,M,6.0,0138*77
$GPVTG,167.0,T,,M,2.05,N,3.79,K,D*02
$GPGGA,211837.00,3929.017308,N,08719.382209,W,2,04,2.4,167.324,M,-34.248,M,6.0,0138*7B
$GPVTG,168.8,T,,M,2.06,N,3.82,K,D*02
$GPGGA,211837.10,3929.017364,N,08719.382154,W,2,04,2.4,167.305,M,-34.248,M,2.0,0138*7C
$GPVTG,167.6,T,,M,2.10,N,3.89,K,D*0F
$GPGGA,211837.20,3929.017309,N,08719.382142,W,2,04,2.4,167.312,M,-34.248,M,2.0,0138*75
$GPVTG,170.4,T,,M,2.01,N,3.72,K,D*0F
$GPGGA,211837.30,3929.017255,N,08719.382125,W,2,04,2.4,167.317,M,-34.248,M,2.0,0138*78
$GPVTG,166.2,T,,M,2.03,N,3.75,K,D*0B
$GPGGA,211837.40,3929.017191,N,08719.382117,W,2,04,2.4,167.318,M,-34.248,M,2.0,0138*7A
$GPVTG,175.0,T,,M,2.31,N,4.27,K,D*0A
$GPGGA,211837.50,3929.017130,N,08719.382104,W,2,04,2.4,167.329,M,-34.248,M,2.0,0138*70
$GPVTG,170.1,T,,M,2.21,N,4.10,K,D*0B
$GPGGA,211837.60,3929.017074,N,08719.382091,W,2,04,2.4,167.338,M,-34.248,M,2.0,0138*7F
$GPVTG,170.0,T,,M,2.08,N,3.86,K,D*09
$GPGGA,211837.70,3929.017016,N,08719.382081,W,2,04,2.4,167.342,M,-34.248,M,2.0,0138*76
$GPVTG,172.3,T,,M,2.09,N,3.88,K,D*07
$GPGGA,211837.80,3929.016957,N,08719.382071,W,2,04,2.4,167.340,M,-34.248,M,2.0,0138*79
$GPVTG,172.8,T,,M,2.14,N,3.96,K,D*0F
$GPGGA,211837.90,3929.016903,N,08719.382057,W,2,04,2.4,167.334,M,-34.248,M,2.0,0138*7E
$GPVTG,168.7,T,,M,1.99,N,3.69,K,D*0D
$GPGGA,211838.00,3929.016840,N,08719.382051,W,2,04,2.4,167.310,M,-34.248,M,2.0,0138*7E
$GPVTG,175.3,T,,M,2.30,N,4.26,K,D*09
$GPGGA,211838.10,3929.016638,N,08719.382079,W,2,04,2.4,167.069,M,-34.248,M,2.0,0138*79
$GPVTG,176.6,T,,M,2.22,N,4.12,K,D*0B
$GPGGA,211838.20,3929.016587,N,08719.382069,W,2,04,2.4,167.061,M,-34.248,M,2.0,0138*74
$GPVTG,171.1,T,,M,1.88,N,3.48,K,D*00
$GPGGA,211838.30,3929.016526,N,08719.382065,W,2,04,2.4,167.035,M,-34.248,M,2.0,0138*73
$GPVTG,177.5,T,,M,2.24,N,4.14,K,D*09
$GPGGA,211838.40,3929.016472,N,08719.382057,W,2,04,2.4,167.042,M,-34.248,M,2.0,0138*75
$GPVTG,173.5,T,,M,1.97,N,3.64,K,D*06
$GPGGA,211838.50,3929.016412,N,08719.382057,W,2,04,2.4,167.072,M,-34.248,M,2.0,0138*71
$GPVTG,179.8,T,,M,2.24,N,4.15,K,D*0B
$GPGGA,211838.60,3929.016356,N,08719.382046,W,2,04,2.4,167.057,M,-34.248,M,2.0,0138*72
$GPVTG,171.4,T,,M,2.04,N,3.79,K,D*00
$GPGGA,211838.70,3929.016294,N,08719.382043,W,2,04,2.4,167.059,M,-34.248,M,2.0,0138*77
$GPVTG,178.0,T,,M,2.24,N,4.15,K,D*02
$GPGGA,211838.80,3929.016232,N,08719.382043,W,2,04,2.4,167.099,M,-34.248,M,2.0,0138*78
$GPVTG,180.0,T,,M,2.35,N,4.35,K,D*07
$GPGGA,211838.90,3929.016177,N,08719.382033,W,2,04,2.4,167.116,M,-34.248,M,2.0,0138*7A
$GPVTG,172.0,T,,M,2.04,N,3.78,K,D*06
$GPGGA,211839.00,3929.016114,N,08719.382032,W,2,04,2.4,167.074,M,-34.248,M,2.0,0138*73
$GPVTG,178.8,T,,M,2.38,N,4.41,K,D*06
$GPGGA,211839.10,3929.016061,N,08719.382019,W,2,04,2.4,166.922,M,-34.248,M,3.0,0138*72
$GPVTG,179.6,T,,M,2.20,N,4.07,K,D*02
$GPGGA,211839.20,3929.016003,N,08719.382014,W,2,04,2.4,166.911,M,-34.248,M,3.0,0138*78
$GPVTG,176.1,T,,M,2.10,N,3.88,K,D*09
$GPGGA,211839.30,3929.015941,N,08719.382006,W,2,04,2.4,166.861,M,-34.248,M,3.0,0138*70
$GPVTG,174.9,T,,M,2.46,N,4.55,K,D*07
$GPGGA,211839.40,3929.015880,N,08719.382013,W,2,04,2.4,166.897,M,-34.248,M,3.0,0138*76
$GPVTG,184.7,T,,M,2.29,N,4.24,K,D*09
$GPGGA,211839.50,3929.015820,N,08719.382005,W,2,04,2.4,166.910,M,-34.248,M,3.0,0138*74
$GPVTG,174.7,T,,M,2.20,N,4.08,K,D*01
$GPGGA,211839.60,3929.015764,N,08719.381994,W,2,04,2.4,166.910,M,-34.248,M,3.0,0138*7A
$GPVTG,171.2,T,,M,2.01,N,3.72,K,D*08
$GPGGA,211839.70,3929.015707,N,08719.381991,W,2,04,2.4,166.916,M,-34.248,M,3.0,0138*7D
$GPVTG,177.2,T,,M,2.06,N,3.81,K,D*05
$GPGGA,211839.80,3929.015647,N,08719.381987,W,2,04,2.4,166.897,M,-34.248,M,3.0,0138*78
$GPVTG,176.9,T,,M,2.19,N,4.06,K,D*09
$GPGGA,211839.90,3929.015597,N,08719.381981,W,2,04,2.4,166.926,M,-34.248,M,3.0,0138*7A
$GPVTG,175.0,T,,M,1.88,N,3.49,K,D*04
$GPGGA,211840.00,3929.015541,N,08719.381977,W,2,04,2.4,166.913,M,-34.248,M,3.0,0138*79
$GPVTG,176.5,T,,M,2.05,N,3.80,K,D*01
$GPGGA,211840.10,3929.015500,N,08719.381965,W,2,04,2.4,166.759,M,-34.248,M,4.0,0138*79
$GPVTG,176.4,T,,M,2.11,N,3.90,K,D*04
$GPGGA,211840.20,3929.015440,N,08719.381959,W,2,04,2.4,166.761,M,-34.248,M,4.0,0138*7B
$GPVTG,175.4,T,,M,2.16,N,4.00,K,D*0E
$GPGGA,211840.30,3929.015386,N,08719.381956,W,2,04,2.4,166.783,M,-34.248,M,4.0,0138*74
$GPVTG,178.0,T,,M,2.00,N,3.70,K,D*00
$GPGGA,211840.40,3929.015331,N,08719.381955,W,2,04,2.4,166.789,M,-34.248,M,4.0,0138*76
$GPVTG,178.8,T,,M,1.97,N,3.64,K,D*00
$GPGGA,211840.50,3929.015278,N,08719.381940,W,2,04,2.4,166.795,M,-34.248,M,4.0,0138*72
$GPVTG,167.8,T,,M,1.98,N,3.66,K,D*03
$GPGGA,211840.60,3929.015228,N,08719.381931,W,2,04,2.4,166.787,M,-34.248,M,4.0,0138*71
$GPVTG,172.0,T,,M,1.80,N,3.33,K,D*06
$GPGGA,211840.70,3929.015175,N,08719.381924,W,2,04,2.4,166.783,M,-34.248,M,4.0,0138*7B
$GPVTG,173.7,T,,M,1.92,N,3.55,K,D*03
$GPGGA,211840.80,3929.015111,N,08719.381918,W,2,04,2.4,166.747,M,-34.248,M,4.0,0138*71
$GPVTG,176.3,T,,M,2.41,N,4.47,K,D*0B
$GPGGA,211840.90,3929.015063,N,08719.381907,W,2,04,2.4,166.771,M,-34.248,M,4.0,0138*7F
$GPVTG,169.7,T,,M,1.83,N,3.40,K,D*0C
$GPGGA,211841.00,3929.015007,N,08719.381886,W,2,04,2.4,166.745,M,-34.248,M,4.0,0138*7A
$GPVTG,164.1,T,,M,2.15,N,3.98,K,D*0E
$GPGGA,211841.10,3929.014947,N,08719.381857,W,2,04,2.4,166.740,M,-34.248,M,5.0,0138*7F
$GPVTG,163.7,T,,M,2.04,N,3.77,K,D*0E
$GPGGA,211841.20,3929.014889,N,08719.381841,W,2,04,2.4,166.758,M,-34.248,M,5.0,0138*71
$GPVTG,168.3,T,,M,2.18,N,4.04,K,D*0F
$GPGGA,211841.30,3929.014837,N,08719.381815,W,2,04,2.4,166.761,M,-34.248,M,5.0,0138*7E
$GPVTG,158.7,T,,M,1.97,N,3.65,K,D*0C
$GPGGA,211841.40,3929.014778,N,08719.381803,W,2,04,2.4,166.768,M,-34.248,M,5.0,0138*73
$GPVTG,171.4,T,,M,2.18,N,4.03,K,D*07
$GPGGA,211841.50,3929.014711,N,08719.381780,W,2,04,2.4,166.745,M,-34.248,M,5.0,0138*76
$GPVTG,164.9,T,,M,2.53,N,4.69,K,D*0D
$GPGGA,211841.60,3929.014664,N,08719.381756,W,2,04,2.4,166.769,M,-34.248,M,5.0,0138*73
$GPVTG,158.0,T,,M,1.87,N,3.47,K,D*0A
$GPGGA,211841.70,3929.014602,N,08719.381728,W,2,04,2.4,166.759,M,-34.248,M,5.0,0138*78
$GPVTG,160.8,T,,M,2.37,N,4.40,K,D*01
$GPGGA,211841.80,3929.014549,N,08719.381702,W,2,04,2.4,166.767,M,-34.248,M,5.0,0138*7E
$GPVTG,159.3,T,,M,2.05,N,3.80,K,D*0A
$GPGGA,211841.90,3929.014501,N,08719.381674,W,2,04,2.4,166.792,M,-34.248,M,5.0,0138*79
$GPVTG,155.0,T,,M,1.94,N,3.58,K,D*0B
$GPGGA,211842.00,3929.014452,N,08719.381646,W,2,04,2.4,166.789,M,-34.248,M,5.0,0138*7F
$GPVTG,156.6,T,,M,1.96,N,3.62,K,D*05
$GPGGA,211842.10,3929.014393,N,08719.381608,W,2,04,2.4,166.716,M,-34.248,M,6.0,0138*7B
$GPVTG,156.4,T,,M,2.41,N,4.46,K,D*0F
$GPGGA,211842.20,3929.014351,N,08719.381576,W,2,04,2.4,166.754,M,-34.248,M,6.0,0138*7A
$GPVTG,149.3,T,,M,1.92,N,3.56,K,D*0D
$GPGGA,211842.30,3929.014298,N,08719.381548,W,2,04,2.4,166.738,M,-34.248,M,6.0,0138*78
$GPVTG,157.8,T,,M,2.05,N,3.80,K,D*0F
$GPGGA,211842.40,3929.014251,N,08719.381509,W,2,04,2.4,166.750,M,-34.248,M,6.0,0138*71
$GPVTG,147.6,T,,M,2.04,N,3.77,K,D*09
$GPGGA,211842.50,3929.014208,N,08719.381465,W,2,04,2.4,166.729,M,-34.248,M,6.0,0138*79
$GPVTG,141.7,T,,M,2.01,N,3.73,K,D*0F
$GPGGA,211842.60,3929.014165,N,08719.381427,W,2,04,2.4,166.734,M,-34.248,M,6.0,0138*78
$GPVTG,145.5,T,,M,1.89,N,3.50,K,D*0B
$GPGGA,211842.70,3929.014113,N,08719.381397,W,2,04,2.4,166.743,M,-34.248,M,6.0,0138*74
$GPVTG,155.8,T,,M,2.05,N,3.80,K,D*0D
$GPGGA,211842.80,3929.014072,N,08719.381358,W,2,04,2.4,166.770,M,-34.248,M,6.0,0138*7E
$GPVTG,143.1,T,,M,1.90,N,3.52,K,D*03
$GPGGA,211842.90,3929.014028,N,08719.381315,W,2,04,2.4,166.797,M,-34.248,M,6.0,0138*70
$GPVTG,143.1,T,,M,2.06,N,3.81,K,D*01
$GPGGA,211843.00,3929.013980,N,08719.381275,W,2,04,2.4,166.788,M,-34.248,M,6.0,0138*7D
$GPVTG,147.5,T,,M,2.08,N,3.85,K,D*0B
$GPGGA,211843.10,3929.013898,N,08719.381340,W,2,04,2.4,166.788,M,-34.248,M,2.0,0138*77
$GPVTG,133.6,T,,M,1.86,N,3.44,K,D*03
$GPGGA,211843.20,3929.013861,N,08719.381301,W,2,04,2.4,166.781,M,-34.248,M,2.0,0138*7E
$GPVTG,140.7,T,,M,1.75,N,3.25,K,D*0D
$GPGGA,211843.30,3929.013815,N,08719.381262,W,2,04,2.4,166.772,M,-34.248,M,2.0,0138*74
$GPVTG,146.8,T,,M,1.99,N,3.68,K,D*0F
$GPGGA,211843.40,3929.013779,N,08719.381224,W,2,04,2.4,166.793,M,-34.248,M,2.0,0138*7B
$GPVTG,140.6,T,,M,1.70,N,3.15,K,D*0A
$GPGGA,211843.50,3929.013735,N,08719.381192,W,2,04,2.4,166.811,M,-34.248,M,2.0,0138*79
$GPVTG,150.6,T,,M,1.87,N,3.47,K,D*04
$GPGGA,211843.60,3929.013696,N,08719.381145,W,2,04,2.4,166.796,M,-34.248,M,2.0,0138*78
$GPVTG,137.0,T,,M,1.95,N,3.60,K,D*05
$GPGGA,211843.70,3929.013658,N,08719.381105,W,2,04,2.4,166.808,M,-34.248,M,2.0,0138*77
$GPVTG,140.3,T,,M,1.76,N,3.26,K,D*09
$GPGGA,211843.80,3929.013623,N,08719.381067,W,2,04,2.4,166.812,M,-34.248,M,2.0,0138*7A
$GPVTG,140.2,T,,M,1.65,N,3.06,K,D*08
$GPGGA,211843.90,3929.013586,N,08719.381020,W,2,04,2.4,166.803,M,-34.248,M,2.0,0138*74
$GPVTG,135.3,T,,M,1.87,N,3.47,K,D*02
$GPGGA,211844.00,3929.013548,N,08719.380980,W,2,04,2.4,166.819,M,-34.248,M,2.0,0138*71
$GPVTG,141.5,T,,M,1.79,N,3.32,K,D*04
$GPGGA,211844.10,3929.013633,N,08719.380892,W,2,04,2.4,167.058,M,-34.248,M,2.0,0138*71
$GPVTG,138.0,T,,M,1.73,N,3.21,K,D*07
$GPGGA,211844.20,3929.013593,N,08719.380847,W,2,04,2.4,167.006,M,-34.248,M,2.0,0138*78
$GPVTG,139.1,T,,M,2.16,N,4.00,K,D*03
$GPGGA,211844.30,3929.013556,N,08719.380810,W,2,04,2.4,167.034,M,-34.248,M,2.0,0138*73
$GPVTG,142.4,T,,M,1.78,N,3.30,K,D*05
$GPGGA,211844.40,3929.013520,N,08719.380763,W,2,04,2.4,167.029,M,-34.248,M,2.0,0138*72
$GPVTG,134.9,T,,M,1.84,N,3.40,K,D*0D
